[
  {
    "id": "3917610",
    "wikiDataId": "Q1049",
    "name": "Sudan",
    "country": "Sudan",
    "latitude": 15,
    "longitude": 32,
    "population": 48945000
  },
  {
    "id": "3710839",
    "wikiDataId": "Q11725",
    "name": "Chongqing",
    "country": "People's Republic of China",
    "latitude": 29.55,
    "longitude": 106.506944444,
    "population": 32054159
  },
  {
    "id": "3519923",
    "wikiDataId": "Q1353",
    "name": "Delhi",
    "country": "India",
    "latitude": 28.666666666,
    "longitude": 77.216666666,
    "population": 26495000
  },
  {
    "id": "3856768",
    "wikiDataId": "Q8686",
    "name": "Shanghai",
    "country": "People's Republic of China",
    "latitude": 31.232222222,
    "longitude": 121.469166666,
    "population": 24870895
  },
  {
    "id": "3711753",
    "wikiDataId": "Q956",
    "name": "Beijing",
    "country": "People's Republic of China",
    "latitude": 39.90403,
    "longitude": 116.407526,
    "population": 21893095
  },
  {
    "id": "3706435",
    "wikiDataId": "Q30002",
    "name": "Chengdu",
    "country": "People's Republic of China",
    "latitude": 30.66,
    "longitude": 104.063333333,
    "population": 20937757
  },
  {
    "id": "3002763",
    "wikiDataId": "Q3308170",
    "name": "Lahore Division",
    "country": "Pakistan",
    "latitude": 31.16666667,
    "longitude": 74.5,
    "population": 19581281
  },
  {
    "id": "3710972",
    "wikiDataId": "Q16572",
    "name": "Guangzhou",
    "country": "People's Republic of China",
    "latitude": 23.13,
    "longitude": 113.26,
    "population": 18676605
  },
  {
    "id": "3711605",
    "wikiDataId": "Q15174",
    "name": "Shenzhen",
    "country": "People's Republic of China",
    "latitude": 22.546666666,
    "longitude": 114.054444444,
    "population": 17681600
  },
  {
    "id": "133468",
    "wikiDataId": "Q1354",
    "name": "Dhaka",
    "country": "Bangladesh",
    "latitude": 23.728888888,
    "longitude": 90.394444444,
    "population": 16800000
  },
  {
    "id": "3023945",
    "wikiDataId": "Q12858404",
    "name": "Gujranwala Division",
    "country": "Pakistan",
    "latitude": 32.45,
    "longitude": 74.13333,
    "population": 16123984
  },
  {
    "id": "3858005",
    "wikiDataId": "Q406",
    "name": "Istanbul",
    "country": "Turkey",
    "latitude": 41.01,
    "longitude": 28.960277777,
    "population": 15655924
  },
  {
    "id": "56521",
    "wikiDataId": "Q1156",
    "name": "Mumbai",
    "country": "India",
    "latitude": 19.075833333,
    "longitude": 72.8775,
    "population": 15414288
  },
  {
    "id": "82318",
    "wikiDataId": "Q8673",
    "name": "Lagos",
    "country": "Nigeria",
    "latitude": 6.456111111,
    "longitude": 3.393611111,
    "population": 15070000
  },
  {
    "id": "3643093",
    "wikiDataId": "Q12360235",
    "name": "Beijing Shi",
    "country": "People's Republic of China",
    "latitude": 40.2,
    "longitude": 116.4167,
    "population": 14933274
  },
  {
    "id": "92643",
    "wikiDataId": "Q8660",
    "name": "Karachi",
    "country": "Pakistan",
    "latitude": 24.86,
    "longitude": 67.01,
    "population": 14910352
  },
  {
    "id": "3577251",
    "wikiDataId": "Q1850485",
    "name": "Dhaka District",
    "country": "Bangladesh",
    "latitude": 23.81093,
    "longitude": 90.36542,
    "population": 14734701
  },
  {
    "id": "3453124",
    "wikiDataId": "Q3838",
    "name": "Kinshasa",
    "country": "Democratic Republic of the Congo",
    "latitude": -4.32758,
    "longitude": 15.31357,
    "population": 14565700
  },
  {
    "id": "3705817",
    "wikiDataId": "Q1490",
    "name": "Tokyo",
    "country": "Japan",
    "latitude": 35.689444444,
    "longitude": 139.691666666,
    "population": 14264798
  },
  {
    "id": "3084723",
    "wikiDataId": "Q3308246",
    "name": "Faisalabad Division",
    "country": "Pakistan",
    "latitude": 31.25,
    "longitude": 72.8,
    "population": 14177081
  },
  {
    "id": "3453217",
    "wikiDataId": "Q1854",
    "name": "Ho Chi Minh City",
    "country": "Vietnam",
    "latitude": 10.82302,
    "longitude": 106.62965,
    "population": 14002598
  },
  {
    "id": "3710858",
    "wikiDataId": "Q11736",
    "name": "Tianjin",
    "country": "People's Republic of China",
    "latitude": 39.146666666,
    "longitude": 117.205555555,
    "population": 13866009
  },
  {
    "id": "3710202",
    "wikiDataId": "Q649",
    "name": "Moscow",
    "country": "Russia",
    "latitude": 55.750555555,
    "longitude": 37.6175,
    "population": 13274285
  },
  {
    "id": "3431471",
    "wikiDataId": "Q2315527",
    "name": "Lahore District",
    "country": "Pakistan",
    "latitude": 31.416666666,
    "longitude": 74.333333333,
    "population": 12978661
  },
  {
    "id": "3710359",
    "wikiDataId": "Q5826",
    "name": "Xi'an",
    "country": "People's Republic of China",
    "latitude": 34.261111111,
    "longitude": 108.942222222,
    "population": 12952907
  },
  {
    "id": "3707722",
    "wikiDataId": "Q42622",
    "name": "Suzhou",
    "country": "People's Republic of China",
    "latitude": 31.3,
    "longitude": 120.619444444,
    "population": 12748262
  },
  {
    "id": "3709500",
    "wikiDataId": "Q30340",
    "name": "Zhengzhou",
    "country": "People's Republic of China",
    "latitude": 34.74919,
    "longitude": 113.66051,
    "population": 12600574
  },
  {
    "id": "57700",
    "wikiDataId": "Q1355",
    "name": "Bengaluru",
    "country": "India",
    "latitude": 12.97194,
    "longitude": 77.59369,
    "population": 12327000
  },
  {
    "id": "3710881",
    "wikiDataId": "Q11746",
    "name": "Wuhan",
    "country": "People's Republic of China",
    "latitude": 30.595,
    "longitude": 114.2975,
    "population": 12326518
  },
  {
    "id": "3084855",
    "wikiDataId": "Q3824212",
    "name": "Multan Division",
    "country": "Pakistan",
    "latitude": 30,
    "longitude": 71.66667,
    "population": 12265161
  },
  {
    "id": "3585413",
    "wikiDataId": "Q15897817",
    "name": "Chongqing Shi",
    "country": "People's Republic of China",
    "latitude": 29.55,
    "longitude": 106.55,
    "population": 12135000
  },
  {
    "id": "3712577",
    "wikiDataId": "Q4970",
    "name": "Hangzhou",
    "country": "People's Republic of China",
    "latitude": 30.25,
    "longitude": 120.1675,
    "population": 11936010
  },
  {
    "id": "3805183",
    "wikiDataId": "Q174",
    "name": "São Paulo",
    "country": "Brazil",
    "latitude": -23.550394444,
    "longitude": -46.633947222,
    "population": 11904961
  },
  {
    "id": "2982624",
    "wikiDataId": "Q2720540",
    "name": "Greater Rio de Janeiro",
    "country": "Brazil",
    "latitude": -22.9028,
    "longitude": -43.2078,
    "population": 11900000
  },
  {
    "id": "3710791",
    "wikiDataId": "Q58584",
    "name": "Baoding",
    "country": "People's Republic of China",
    "latitude": 38.86712,
    "longitude": 115.48452,
    "population": 11544036
  },
  {
    "id": "3027953",
    "wikiDataId": "Q4842510",
    "name": "Bahawalpur Division",
    "country": "Pakistan",
    "latitude": 28.5,
    "longitude": 71.5,
    "population": 11464031
  },
  {
    "id": "3453246",
    "wikiDataId": "Q3630",
    "name": "Jakarta",
    "country": "Indonesia",
    "latitude": -6.2,
    "longitude": 106.83333,
    "population": 11135191
  },
  {
    "id": "3184771",
    "wikiDataId": "Q943099",
    "name": "Thane district",
    "country": "India",
    "latitude": 19.2,
    "longitude": 72.97,
    "population": 11060148
  },
  {
    "id": "3714126",
    "wikiDataId": "Q373346",
    "name": "Linyi",
    "country": "People's Republic of China",
    "latitude": 35.10408,
    "longitude": 118.35019,
    "population": 11018365
  },
  {
    "id": "3833038",
    "wikiDataId": "Q2315476",
    "name": "Dera Ghazi Khan District",
    "country": "Pakistan",
    "latitude": 30.475,
    "longitude": 70.40447,
    "population": 11014398
  },
  {
    "id": "3711228",
    "wikiDataId": "Q58401",
    "name": "Shijiazhuang",
    "country": "People's Republic of China",
    "latitude": 38.0425,
    "longitude": 114.51,
    "population": 10640458
  },
  {
    "id": "3709516",
    "wikiDataId": "Q59218",
    "name": "Dongguan",
    "country": "People's Republic of China",
    "latitude": 23.01797,
    "longitude": 113.74866,
    "population": 10466625
  },
  {
    "id": "3706686",
    "wikiDataId": "Q170322",
    "name": "Qingdao",
    "country": "People's Republic of China",
    "latitude": 36.116666666,
    "longitude": 120.4,
    "population": 10071722
  },
  {
    "id": "3712193",
    "wikiDataId": "Q174091",
    "name": "Changsha",
    "country": "People's Republic of China",
    "latitude": 28.19874,
    "longitude": 112.97087,
    "population": 10047914
  },
  {
    "id": "172136",
    "wikiDataId": "Q104994",
    "name": "Los Angeles County",
    "country": "United States",
    "latitude": 34.05,
    "longitude": -118.25,
    "population": 10014009
  },
  {
    "id": "3711194",
    "wikiDataId": "Q42956",
    "name": "Harbin",
    "country": "People's Republic of China",
    "latitude": 45.75,
    "longitude": 126.633333333,
    "population": 10009854
  },
  {
    "id": "147877",
    "wikiDataId": "Q338425",
    "name": "North 24 Parganas district",
    "country": "India",
    "latitude": 22.716666666,
    "longitude": 88.483333333,
    "population": 10009781
  },
  {
    "id": "3061150",
    "wikiDataId": "Q3308218",
    "name": "Rawalpindi Division",
    "country": "Pakistan",
    "latitude": 33.16664,
    "longitude": 72.99974,
    "population": 10007821
  },
  {
    "id": "86391",
    "wikiDataId": "Q2868",
    "name": "Lima",
    "country": "Peru",
    "latitude": -12.04318,
    "longitude": -77.02824,
    "population": 9943800
  },
  {
    "id": "3712927",
    "wikiDataId": "Q85",
    "name": "Cairo",
    "country": "Egypt",
    "latitude": 30.044444444,
    "longitude": 31.235833333,
    "population": 9801536
  },
  {
    "id": "3713105",
    "wikiDataId": "Q404763",
    "name": "Nanyang",
    "country": "People's Republic of China",
    "latitude": 32.99871,
    "longitude": 112.52921,
    "population": 9713112
  },
  {
    "id": "3453247",
    "wikiDataId": "Q8684",
    "name": "Seoul",
    "country": "South Korea",
    "latitude": 37.56,
    "longitude": 126.99,
    "population": 9668465
  },
  {
    "id": "147700",
    "wikiDataId": "Q806463",
    "name": "Bengaluru Urban district",
    "country": "India",
    "latitude": 12.970213888,
    "longitude": 77.560288888,
    "population": 9621551
  },
  {
    "id": "3707702",
    "wikiDataId": "Q42635",
    "name": "Wenzhou",
    "country": "People's Republic of China",
    "latitude": 27.999128,
    "longitude": 120.656075,
    "population": 9572903
  },
  {
    "id": "3710932",
    "wikiDataId": "Q34412",
    "name": "Foshan",
    "country": "People's Republic of China",
    "latitude": 23.029167,
    "longitude": 113.105556,
    "population": 9498863
  },
  {
    "id": "147864",
    "wikiDataId": "Q1854679",
    "name": "Pune division",
    "country": "India",
    "latitude": 18.53,
    "longitude": 73.84,
    "population": 9429408
  },
  {
    "id": "3710805",
    "wikiDataId": "Q58570",
    "name": "Handan",
    "country": "People's Republic of China",
    "latitude": 36.61161,
    "longitude": 114.48937,
    "population": 9413990
  },
  {
    "id": "3711585",
    "wikiDataId": "Q42780",
    "name": "Ningbo",
    "country": "People's Republic of China",
    "latitude": 29.875,
    "longitude": 121.549166666,
    "population": 9404283
  },
  {
    "id": "3712514",
    "wikiDataId": "Q217698",
    "name": "Weifang",
    "country": "People's Republic of China",
    "latitude": 36.716666666,
    "longitude": 119.1,
    "population": 9386705
  },
  {
    "id": "3707591",
    "wikiDataId": "Q185684",
    "name": "Hefei",
    "country": "People's Republic of China",
    "latitude": 31.86389,
    "longitude": 117.28083,
    "population": 9369881
  },
  {
    "id": "3024327",
    "wikiDataId": "Q2085374",
    "name": "Mumbai Suburban district",
    "country": "India",
    "latitude": 19.05,
    "longitude": 72.833333333,
    "population": 9356962
  },
  {
    "id": "3711190",
    "wikiDataId": "Q16666",
    "name": "Nanjing",
    "country": "People's Republic of China",
    "latitude": 32.060833333,
    "longitude": 118.778888888,
    "population": 9314685
  },
  {
    "id": "56003",
    "wikiDataId": "Q1361",
    "name": "Hyderabad",
    "country": "India",
    "latitude": 17.361666666,
    "longitude": 78.474722222,
    "population": 9305000
  },
  {
    "id": "3453102",
    "wikiDataId": "Q1489",
    "name": "Mexico City",
    "country": "Mexico",
    "latitude": 19.353773,
    "longitude": -99.13589,
    "population": 9209944
  },
  {
    "id": "3706047",
    "wikiDataId": "Q170247",
    "name": "Jinan",
    "country": "People's Republic of China",
    "latitude": 36.666666666,
    "longitude": 116.983333333,
    "population": 9202432
  },
  {
    "id": "3571160",
    "wikiDataId": "Q1074991",
    "name": "Chattogram District",
    "country": "Bangladesh",
    "latitude": 22.3375,
    "longitude": 91.8389,
    "population": 9169465
  },
  {
    "id": "3898306",
    "wikiDataId": "Q57719",
    "name": "Xuzhou",
    "country": "People's Republic of China",
    "latitude": 34.26104,
    "longitude": 117.18587,
    "population": 9083790
  },
  {
    "id": "3338294",
    "wikiDataId": "Q2281194",
    "name": "Faisalabad District",
    "country": "Pakistan",
    "latitude": 31.418083333,
    "longitude": 73.077575,
    "population": 9075819
  },
  {
    "id": "3710834",
    "wikiDataId": "Q11720",
    "name": "Shenyang",
    "country": "People's Republic of China",
    "latitude": 41.8025,
    "longitude": 123.428055555,
    "population": 9070093
  },
  {
    "id": "3712192",
    "wikiDataId": "Q92161",
    "name": "Changchun",
    "country": "People's Republic of China",
    "latitude": 43.9,
    "longitude": 125.2,
    "population": 9066906
  },
  {
    "id": "3712194",
    "wikiDataId": "Q198061",
    "name": "Zhoukou",
    "country": "People's Republic of China",
    "latitude": 33.62502,
    "longitude": 114.6418,
    "population": 9026015
  },
  {
    "id": "3453216",
    "wikiDataId": "Q1865",
    "name": "Kuala Lumpur",
    "country": "Malaysia",
    "latitude": 3.147777777,
    "longitude": 101.695277777,
    "population": 9000280
  },
  {
    "id": "3709329",
    "wikiDataId": "Q363166",
    "name": "Ganzhou",
    "country": "People's Republic of China",
    "latitude": 25.829166666,
    "longitude": 114.933611111,
    "population": 8970014
  },
  {
    "id": "3602356",
    "wikiDataId": "Q23306",
    "name": "Greater London",
    "country": "United Kingdom",
    "latitude": 51.5,
    "longitude": -0.083333333,
    "population": 8866180
  },
  {
    "id": "123214",
    "wikiDataId": "Q60",
    "name": "New York City",
    "country": "United States",
    "latitude": 40.71427,
    "longitude": -74.00597,
    "population": 8804190
  },
  {
    "id": "45633",
    "wikiDataId": "Q84",
    "name": "London",
    "country": "United Kingdom",
    "latitude": 51.507222222,
    "longitude": -0.1275,
    "population": 8799728
  },
  {
    "id": "3712336",
    "wikiDataId": "Q332753",
    "name": "Heze",
    "country": "People's Republic of China",
    "latitude": 35.233333333,
    "longitude": 115.433333333,
    "population": 8795939
  },
  {
    "id": "3706836",
    "wikiDataId": "Q68695",
    "name": "Quanzhou",
    "country": "People's Republic of China",
    "latitude": 24.91389,
    "longitude": 118.58583,
    "population": 8782285
  },
  {
    "id": "3711824",
    "wikiDataId": "Q179608",
    "name": "Nanning",
    "country": "People's Republic of China",
    "latitude": 22.81667,
    "longitude": 108.31667,
    "population": 8741584
  },
  {
    "id": "3497399",
    "wikiDataId": "Q643031",
    "name": "Tehran County",
    "country": "Iran",
    "latitude": 35.683333333,
    "longitude": 51.4,
    "population": 8737510
  },
  {
    "id": "3453078",
    "wikiDataId": "Q1858",
    "name": "Hanoi",
    "country": "Vietnam",
    "latitude": 21.0245,
    "longitude": 105.84117,
    "population": 8717600
  },
  {
    "id": "57751",
    "wikiDataId": "Q3616",
    "name": "Tehran",
    "country": "Iran",
    "latitude": 35.688888888,
    "longitude": 51.389722222,
    "population": 8693706
  },
  {
    "id": "3675157",
    "wikiDataId": "Q579240",
    "name": "Lima Province",
    "country": "Peru",
    "latitude": -12.058333333,
    "longitude": -77.041666666,
    "population": 8574974
  },
  {
    "id": "3713920",
    "wikiDataId": "Q182852",
    "name": "Kunming",
    "country": "People's Republic of China",
    "latitude": 25.043333333,
    "longitude": 102.706111111,
    "population": 8460088
  },
  {
    "id": "3851765",
    "wikiDataId": "Q806",
    "name": "Randstad",
    "country": "Netherlands",
    "latitude": 52.190833,
    "longitude": 4.655556,
    "population": 8400000
  },
  {
    "id": "3707904",
    "wikiDataId": "Q372791",
    "name": "Jining",
    "country": "People's Republic of China",
    "latitude": 35.4,
    "longitude": 116.566666666,
    "population": 8357897
  },
  {
    "id": "3712486",
    "wikiDataId": "Q68481",
    "name": "Fuzhou",
    "country": "People's Republic of China",
    "latitude": 26.06139,
    "longitude": 119.30611,
    "population": 8291268
  },
  {
    "id": "3854836",
    "wikiDataId": "Q360584",
    "name": "Fuyang",
    "country": "People's Republic of China",
    "latitude": 32.9,
    "longitude": 115.81667,
    "population": 8200264
  },
  {
    "id": "147894",
    "wikiDataId": "Q2308319",
    "name": "South 24 Parganas district",
    "country": "India",
    "latitude": 22.5264928,
    "longitude": 88.3323692,
    "population": 8161961
  },
  {
    "id": "57330",
    "wikiDataId": "Q1530",
    "name": "Baghdad",
    "country": "Iraq",
    "latitude": 33.315277777,
    "longitude": 44.366111111,
    "population": 8126755
  },
  {
    "id": "3453265",
    "wikiDataId": "Q2841",
    "name": "Bogotá",
    "country": "Colombia",
    "latitude": 4.60971,
    "longitude": -74.08175,
    "population": 8034649
  },
  {
    "id": "3713517",
    "wikiDataId": "Q404817",
    "name": "Shangqiu",
    "country": "People's Republic of China",
    "latitude": 34.42592,
    "longitude": 115.64673,
    "population": 7816831
  },
  {
    "id": "3706432",
    "wikiDataId": "Q57947",
    "name": "Nantong",
    "country": "People's Republic of China",
    "latitude": 31.98288,
    "longitude": 120.8873,
    "population": 7726635
  },
  {
    "id": "3711271",
    "wikiDataId": "Q58422",
    "name": "Tangshan",
    "country": "People's Republic of China",
    "latitude": 39.629444444,
    "longitude": 118.173888888,
    "population": 7717983
  },
  {
    "id": "56924",
    "wikiDataId": "Q1070",
    "name": "Ahmedabad",
    "country": "India",
    "latitude": 23.021944444,
    "longitude": 72.579722222,
    "population": 7645000
  },
  {
    "id": "3075835",
    "wikiDataId": "Q3247127",
    "name": "Malakand Division",
    "country": "Pakistan",
    "latitude": 35.5,
    "longitude": 72,
    "population": 7514694
  },
  {
    "id": "3707762",
    "wikiDataId": "Q42651",
    "name": "Wuxi",
    "country": "People's Republic of China",
    "latitude": 31.566667,
    "longitude": 120.283333,
    "population": 7462135
  },
  {
    "id": "3709610",
    "wikiDataId": "Q74881",
    "name": "Dalian",
    "country": "People's Republic of China",
    "latitude": 38.91222,
    "longitude": 121.60222,
    "population": 7450785
  },
  {
    "id": "3712261",
    "wikiDataId": "Q8646",
    "name": "Hong Kong",
    "country": "Hong Kong",
    "latitude": 22.278333333,
    "longitude": 114.158611111,
    "population": 7413070
  },
  {
    "id": "2980886",
    "wikiDataId": "Q3246884",
    "name": "Peshawar Division",
    "country": "Pakistan",
    "latitude": 34.02223,
    "longitude": 72.00207,
    "population": 7403817
  },
  {
    "id": "3710239",
    "wikiDataId": "Q58695",
    "name": "Cangzhou",
    "country": "People's Republic of China",
    "latitude": 38.30369,
    "longitude": 116.84519,
    "population": 7300783
  },
  {
    "id": "3101777",
    "wikiDataId": "Q401686",
    "name": "Ahmedabad district",
    "country": "India",
    "latitude": 23.03,
    "longitude": 72.58,
    "population": 7214225
  },
  {
    "id": "3710804",
    "wikiDataId": "Q58576",
    "name": "Xingtai",
    "country": "People's Republic of China",
    "latitude": 37.06594,
    "longitude": 114.47531,
    "population": 7111106
  },
  {
    "id": "3205036",
    "wikiDataId": "Q1546240",
    "name": "Murshidabad district",
    "country": "India",
    "latitude": 24.2,
    "longitude": 88.266666666,
    "population": 7103807
  },
  {
    "id": "3713901",
    "wikiDataId": "Q210493",
    "name": "Yantai",
    "country": "People's Republic of China",
    "latitude": 37.47649,
    "longitude": 121.44081,
    "population": 7102116
  },
  {
    "id": "14661",
    "wikiDataId": "Q187136",
    "name": "Luoyang",
    "country": "People's Republic of China",
    "latitude": 34.65867,
    "longitude": 112.42447,
    "population": 7081000
  },
  {
    "id": "3708077",
    "wikiDataId": "Q58210",
    "name": "Jinhua",
    "country": "People's Republic of China",
    "latitude": 29.10678,
    "longitude": 119.64421,
    "population": 7050683
  },
  {
    "id": "3087513",
    "wikiDataId": "Q3827859",
    "name": "Hyderabad Division",
    "country": "Pakistan",
    "latitude": 25.25,
    "longitude": 68.75,
    "population": 7026335
  },
  {
    "id": "105350",
    "wikiDataId": "Q3692",
    "name": "Riyadh",
    "country": "Saudi Arabia",
    "latitude": 24.65,
    "longitude": 46.71,
    "population": 7009100
  },
  {
    "id": "3713483",
    "wikiDataId": "Q198240",
    "name": "Zhumadian",
    "country": "People's Republic of China",
    "latitude": 32.97729,
    "longitude": 114.02528,
    "population": 7008427
  },
  {
    "id": "3715244",
    "wikiDataId": "Q59144",
    "name": "Zhanjiang",
    "country": "People's Republic of China",
    "latitude": 21.196667,
    "longitude": 110.403056,
    "population": 6981236
  },
  {
    "id": "3711532",
    "wikiDataId": "Q486319",
    "name": "Bijie",
    "country": "People's Republic of China",
    "latitude": 27.30193,
    "longitude": 105.28627,
    "population": 6899636
  },
  {
    "id": "72371",
    "wikiDataId": "Q37995",
    "name": "Yangon",
    "country": "Myanmar",
    "latitude": 16.795,
    "longitude": 96.16,
    "population": 6874000
  },
  {
    "id": "3732499",
    "wikiDataId": "Q8678",
    "name": "Rio de Janeiro",
    "country": "Brazil",
    "latitude": -22.911111111,
    "longitude": -43.205555555,
    "population": 6730729
  },
  {
    "id": "3707047",
    "wikiDataId": "Q57866",
    "name": "Yancheng",
    "country": "People's Republic of China",
    "latitude": 33.55097,
    "longitude": 120.21301,
    "population": 6709629
  },
  {
    "id": "144279",
    "wikiDataId": "Q24004405",
    "name": "Madrid Province",
    "country": "Spain",
    "latitude": 40.40225,
    "longitude": -3.71029,
    "population": 6661949
  },
  {
    "id": "3710030",
    "wikiDataId": "Q144663",
    "name": "Hengyang",
    "country": "People's Republic of China",
    "latitude": 26.76314,
    "longitude": 112.62835,
    "population": 6645243
  },
  {
    "id": "3347871",
    "wikiDataId": "Q1134781",
    "name": "Jaipur district",
    "country": "India",
    "latitude": 26.926,
    "longitude": 75.8235,
    "population": 6626178
  },
  {
    "id": "3707896",
    "wikiDataId": "Q58273",
    "name": "Taizhou",
    "country": "People's Republic of China",
    "latitude": 28.66266,
    "longitude": 121.43312,
    "population": 6622888
  },
  {
    "id": "3713933",
    "wikiDataId": "Q28994",
    "name": "Zunyi",
    "country": "People's Republic of China",
    "latitude": 27.68667,
    "longitude": 106.90722,
    "population": 6606675
  },
  {
    "id": "54935",
    "wikiDataId": "Q1352",
    "name": "Chennai",
    "country": "India",
    "latitude": 13.0825,
    "longitude": 80.275,
    "population": 6599000
  },
  {
    "id": "3712084",
    "wikiDataId": "Q194531",
    "name": "Shaoyang",
    "country": "People's Republic of China",
    "latitude": 27.23818,
    "longitude": 111.46214,
    "population": 6563520
  },
  {
    "id": "3705694",
    "wikiDataId": "Q363479",
    "name": "Shangrao",
    "country": "People's Republic of China",
    "latitude": 28.67426,
    "longitude": 117.47098,
    "population": 6491088
  },
  {
    "id": "3702050",
    "wikiDataId": "Q48006",
    "name": "East of England",
    "country": "United Kingdom",
    "latitude": 52.24,
    "longitude": 0.41,
    "population": 6398497
  },
  {
    "id": "3508197",
    "wikiDataId": "Q4667612",
    "name": "Abidjan Department",
    "country": "Ivory Coast",
    "latitude": 5.41667,
    "longitude": -4.03333,
    "population": 6321017
  },
  {
    "id": "12508",
    "wikiDataId": "Q2887",
    "name": "Santiago",
    "country": "Chile",
    "latitude": -33.4375,
    "longitude": -70.65,
    "population": 6257516
  },
  {
    "id": "3712741",
    "wikiDataId": "Q171943",
    "name": "Nanchang",
    "country": "People's Republic of China",
    "latitude": 28.684167,
    "longitude": 115.887222,
    "population": 6255007
  },
  {
    "id": "3706649",
    "wikiDataId": "Q404362",
    "name": "Xinxiang",
    "country": "People's Republic of China",
    "latitude": 35.29917,
    "longitude": 113.88515,
    "population": 6251929
  },
  {
    "id": "3713706",
    "wikiDataId": "Q404873",
    "name": "Xinyang",
    "country": "People's Republic of China",
    "latitude": 32.12641,
    "longitude": 114.06722,
    "population": 6234401
  },
  {
    "id": "3531549",
    "wikiDataId": "Q1480778",
    "name": "Cumilla District",
    "country": "Bangladesh",
    "latitude": 23.4583,
    "longitude": 91.1833,
    "population": 6212216
  },
  {
    "id": "3706324",
    "wikiDataId": "Q38927",
    "name": "Maoming",
    "country": "People's Republic of China",
    "latitude": 21.66625,
    "longitude": 110.91364,
    "population": 6174050
  },
  {
    "id": "144283",
    "wikiDataId": "Q8029709",
    "name": "Wolayita Zone",
    "country": "Ethiopia",
    "latitude": 6.833333333,
    "longitude": 37.75,
    "population": 6142063
  },
  {
    "id": "3912478",
    "wikiDataId": "Q1797269",
    "name": "Nashik district",
    "country": "India",
    "latitude": 19.994166666,
    "longitude": 73.797222222,
    "population": 6107187
  },
  {
    "id": "147883",
    "wikiDataId": "Q526400",
    "name": "Nashik division",
    "country": "India",
    "latitude": 20.01,
    "longitude": 73.78,
    "population": 6107187
  },
  {
    "id": "3287775",
    "wikiDataId": "Q1797317",
    "name": "Surat district",
    "country": "India",
    "latitude": 20.916666666,
    "longitude": 73.05,
    "population": 6081322
  },
  {
    "id": "3709390",
    "wikiDataId": "Q59173",
    "name": "Huizhou",
    "country": "People's Republic of China",
    "latitude": 23.11147,
    "longitude": 114.41523,
    "population": 6042852
  },
  {
    "id": "3713681",
    "wikiDataId": "Q192271",
    "name": "Guiyang",
    "country": "People's Republic of China",
    "latitude": 26.579444444,
    "longitude": 106.707777777,
    "population": 5987018
  },
  {
    "id": "3184830",
    "wikiDataId": "Q1773426",
    "name": "Prayagraj district",
    "country": "India",
    "latitude": 25.45,
    "longitude": 81.85,
    "population": 5954391
  },
  {
    "id": "3710591",
    "wikiDataId": "Q373564",
    "name": "Liaocheng",
    "country": "People's Republic of China",
    "latitude": 36.45,
    "longitude": 115.983333333,
    "population": 5952128
  },
  {
    "id": "55198",
    "wikiDataId": "Q1538",
    "name": "Pune",
    "country": "India",
    "latitude": 18.519574,
    "longitude": 73.855287,
    "population": 5945000
  },
  {
    "id": "147415",
    "wikiDataId": "Q4629",
    "name": "Surat",
    "country": "India",
    "latitude": 21.205,
    "longitude": 72.84,
    "population": 5935000
  },
  {
    "id": "147906",
    "wikiDataId": "Q1855537",
    "name": "Paschim Medinipur district",
    "country": "India",
    "latitude": 22.424,
    "longitude": 87.319,
    "population": 5913457
  },
  {
    "id": "3192687",
    "wikiDataId": "Q81949",
    "name": "Barcelona Province",
    "country": "Spain",
    "latitude": 41.66667,
    "longitude": 2,
    "population": 5899063
  },
  {
    "id": "3693730",
    "wikiDataId": "Q1429976",
    "name": "Mymensingh District",
    "country": "Bangladesh",
    "latitude": 24.634166666,
    "longitude": 90.267777777,
    "population": 5899005
  },
  {
    "id": "3711765",
    "wikiDataId": "Q71355",
    "name": "Huanggang",
    "country": "People's Republic of China",
    "latitude": 30.45143,
    "longitude": 114.87035,
    "population": 5882719
  },
  {
    "id": "3516906",
    "wikiDataId": "Q334",
    "name": "Singapore",
    "country": "Singapore",
    "latitude": 1.3,
    "longitude": 103.8,
    "population": 5866139
  },
  {
    "id": "3294978",
    "wikiDataId": "Q100077",
    "name": "Patna district",
    "country": "India",
    "latitude": 25.416666666,
    "longitude": 85.166666666,
    "population": 5838465
  },
  {
    "id": "3453098",
    "wikiDataId": "Q3640",
    "name": "Ankara",
    "country": "Turkey",
    "latitude": 39.93576,
    "longitude": 32.83869,
    "population": 5803482
  },
  {
    "id": "3709497",
    "wikiDataId": "Q571918",
    "name": "Yulin",
    "country": "People's Republic of China",
    "latitude": 22.6305,
    "longitude": 110.14686,
    "population": 5796766
  },
  {
    "id": "3706674",
    "wikiDataId": "Q496405",
    "name": "Qujing",
    "country": "People's Republic of China",
    "latitude": 25.48333,
    "longitude": 103.78333,
    "population": 5765775
  },
  {
    "id": "3702084",
    "wikiDataId": "Q48026",
    "name": "South West England",
    "country": "United Kingdom",
    "latitude": 50.96,
    "longitude": -3.22,
    "population": 5764881
  },
  {
    "id": "147048",
    "wikiDataId": "Q10363",
    "name": "Bogor",
    "country": "Indonesia",
    "latitude": -6.4803,
    "longitude": 106.8247,
    "population": 5715009
  },
  {
    "id": "3882959",
    "wikiDataId": "Q3624",
    "name": "Addis Ababa",
    "country": "Ethiopia",
    "latitude": 9.027222222,
    "longitude": 38.736944444,
    "population": 5704000
  },
  {
    "id": "3713043",
    "wikiDataId": "Q125378",
    "name": "Pudong",
    "country": "People's Republic of China",
    "latitude": 31.223055555,
    "longitude": 121.539722222,
    "population": 5681512
  },
  {
    "id": "3453191",
    "wikiDataId": "Q1861",
    "name": "Bangkok",
    "country": "Thailand",
    "latitude": 13.75,
    "longitude": 100.516666666,
    "population": 5676648
  },
  {
    "id": "3857546",
    "wikiDataId": "Q656",
    "name": "Saint Petersburg",
    "country": "Russia",
    "latitude": 59.95,
    "longitude": 30.316666666,
    "population": 5652922
  },
  {
    "id": "3706394",
    "wikiDataId": "Q1515",
    "name": "Abidjan",
    "country": "Ivory Coast",
    "latitude": 5.336388888,
    "longitude": -4.026666666,
    "population": 5616633
  },
  {
    "id": "3711456",
    "wikiDataId": "Q162880",
    "name": "Dezhou",
    "country": "People's Republic of China",
    "latitude": 37.45127,
    "longitude": 116.31046,
    "population": 5611194
  },
  {
    "id": "3708656",
    "wikiDataId": "Q426996",
    "name": "Nanchong",
    "country": "People's Republic of China",
    "latitude": 30.79913,
    "longitude": 106.07843,
    "population": 5607565
  },
  {
    "id": "3713910",
    "wikiDataId": "Q26323",
    "name": "Jieyang",
    "country": "People's Republic of China",
    "latitude": 23.5418,
    "longitude": 116.36581,
    "population": 5577814
  },
  {
    "id": "3813736",
    "wikiDataId": "Q59100",
    "name": "Shantou",
    "country": "People's Republic of China",
    "latitude": 23.32024,
    "longitude": 116.53972,
    "population": 5575500
  },
  {
    "id": "159510",
    "wikiDataId": "Q2639823",
    "name": "Rahim Yar Khan District",
    "country": "Pakistan",
    "latitude": 28.42,
    "longitude": 70.3,
    "population": 5564703
  },
  {
    "id": "68874",
    "wikiDataId": "Q3870",
    "name": "Nairobi",
    "country": "Kenya",
    "latitude": -1.286388888,
    "longitude": 36.817222222,
    "population": 5545000
  },
  {
    "id": "3075115",
    "wikiDataId": "Q7635876",
    "name": "Sukkur Division",
    "country": "Pakistan",
    "latitude": 27.25,
    "longitude": 69,
    "population": 5538555
  },
  {
    "id": "147595",
    "wikiDataId": "Q548518",
    "name": "Hooghly district",
    "country": "India",
    "latitude": 22.9,
    "longitude": 88.39,
    "population": 5519145
  },
  {
    "id": "3712254",
    "wikiDataId": "Q324293",
    "name": "Anyang",
    "country": "People's Republic of China",
    "latitude": 36.09561,
    "longitude": 114.34614,
    "population": 5477614
  },
  {
    "id": "3712529",
    "wikiDataId": "Q217681",
    "name": "Tai'an",
    "country": "People's Republic of China",
    "latitude": 36.2001,
    "longitude": 117.0809,
    "population": 5472217
  },
  {
    "id": "3713665",
    "wikiDataId": "Q58710",
    "name": "Langfang",
    "country": "People's Republic of China",
    "latitude": 39.51962,
    "longitude": 116.70056,
    "population": 5464087
  },
  {
    "id": "4935",
    "wikiDataId": "Q3130",
    "name": "Sydney",
    "country": "Australia",
    "latitude": -33.86785,
    "longitude": 151.20732,
    "population": 5450496
  },
  {
    "id": "3708496",
    "wikiDataId": "Q58178",
    "name": "Jiaxing",
    "country": "People's Republic of China",
    "latitude": 30.7522,
    "longitude": 120.75,
    "population": 5400868
  },
  {
    "id": "3713222",
    "wikiDataId": "Q427488",
    "name": "Dazhou",
    "country": "People's Republic of China",
    "latitude": 31.2152,
    "longitude": 107.49472,
    "population": 5385422
  },
  {
    "id": "3712929",
    "wikiDataId": "Q87",
    "name": "Alexandria",
    "country": "Egypt",
    "latitude": 31.1975,
    "longitude": 29.8925,
    "population": 5362517
  },
  {
    "id": "4970",
    "wikiDataId": "Q3141",
    "name": "Melbourne",
    "country": "Australia",
    "latitude": -37.814166666,
    "longitude": 144.963055555,
    "population": 5350705
  },
  {
    "id": "3850695",
    "wikiDataId": "Q2357258",
    "name": "Guadalajara metropolitan area",
    "country": "Mexico",
    "latitude": 20.08689,
    "longitude": -103.30994,
    "population": 5350000
  },
  {
    "id": "105619",
    "wikiDataId": "Q1963",
    "name": "Khartoum",
    "country": "Sudan",
    "latitude": 15.60308,
    "longitude": 32.52654,
    "population": 5345000
  },
  {
    "id": "3472626",
    "wikiDataId": "Q3246880",
    "name": "Hazara Division",
    "country": "Pakistan",
    "latitude": 34.83438,
    "longitude": 73.22525,
    "population": 5325121
  },
  {
    "id": "3711009",
    "wikiDataId": "Q360643",
    "name": "Suzhou",
    "country": "People's Republic of China",
    "latitude": 33.8697,
    "longitude": 117.20569,
    "population": 5324476
  },
  {
    "id": "3711144",
    "wikiDataId": "Q72778",
    "name": "Taiyuan",
    "country": "People's Republic of China",
    "latitude": 37.87326,
    "longitude": 112.54245,
    "population": 5304061
  },
  {
    "id": "147778",
    "wikiDataId": "Q15388",
    "name": "Ranga Reddy district",
    "country": "India",
    "latitude": 17.2,
    "longitude": 78.28,
    "population": 5296741
  },
  {
    "id": "3709659",
    "wikiDataId": "Q266014",
    "name": "Yongzhou",
    "country": "People's Republic of China",
    "latitude": 26.42389,
    "longitude": 111.61306,
    "population": 5289824
  },
  {
    "id": "3705412",
    "wikiDataId": "Q416544",
    "name": "Changde",
    "country": "People's Republic of China",
    "latitude": 29.03205,
    "longitude": 111.69844,
    "population": 5279102
  },
  {
    "id": "3706463",
    "wikiDataId": "Q57970",
    "name": "Changzhou",
    "country": "People's Republic of China",
    "latitude": 31.77359,
    "longitude": 119.95401,
    "population": 5278121
  },
  {
    "id": "171371",
    "wikiDataId": "Q108418",
    "name": "Cook County",
    "country": "United States",
    "latitude": 41.8,
    "longitude": -87.716666666,
    "population": 5275541
  },
  {
    "id": "3707795",
    "wikiDataId": "Q42666",
    "name": "Shaoxing",
    "country": "People's Republic of China",
    "latitude": 30,
    "longitude": 120.583333333,
    "population": 5270977
  },
  {
    "id": "3685496",
    "wikiDataId": "Q2094101",
    "name": "Gazipur District",
    "country": "Bangladesh",
    "latitude": 24,
    "longitude": 90.43,
    "population": 5263450
  },
  {
    "id": "3711540",
    "wikiDataId": "Q71284",
    "name": "Xiangyang",
    "country": "People's Republic of China",
    "latitude": 32.0422,
    "longitude": 112.14479,
    "population": 5260951
  },
  {
    "id": "140914",
    "wikiDataId": "Q45632",
    "name": "Santiago province",
    "country": "Chile",
    "latitude": -33.416666666,
    "longitude": -70.55,
    "population": 5250565
  },
  {
    "id": "143471",
    "wikiDataId": "Q7926",
    "name": "Düsseldorf Government Region",
    "country": "Germany",
    "latitude": 51.42,
    "longitude": 6.67,
    "population": 5244379
  },
  {
    "id": "3600982",
    "wikiDataId": "Q163",
    "name": "Yorkshire",
    "country": "United Kingdom",
    "latitude": 53.958333333,
    "longitude": -1.083333333,
    "population": 5234700
  },
  {
    "id": "3707943",
    "wikiDataId": "Q71247",
    "name": "Jingzhou",
    "country": "People's Republic of China",
    "latitude": 30.324444444,
    "longitude": 112.236111111,
    "population": 5231180
  },
  {
    "id": "3100226",
    "wikiDataId": "Q1143880",
    "name": "Nadia district",
    "country": "India",
    "latitude": 23.4,
    "longitude": 88.5,
    "population": 5167600
  },
  {
    "id": "3705844",
    "wikiDataId": "Q68744",
    "name": "Xiamen",
    "country": "People's Republic of China",
    "latitude": 24.479722222,
    "longitude": 118.081944444,
    "population": 5163970
  },
  {
    "id": "147632",
    "wikiDataId": "Q15338",
    "name": "East Godavari district",
    "country": "India",
    "latitude": 17.07525,
    "longitude": 81.71896,
    "population": 5154296
  },
  {
    "id": "3506814",
    "wikiDataId": "Q49159",
    "name": "East Champaran District",
    "country": "India",
    "latitude": 26.65,
    "longitude": 84.9167,
    "population": 5099371
  },
  {
    "id": "147876",
    "wikiDataId": "Q1431920",
    "name": "Purba Medinipur district",
    "country": "India",
    "latitude": 22.3,
    "longitude": 87.92,
    "population": 5095875
  },
  {
    "id": "3720409",
    "wikiDataId": "Q1197700",
    "name": "Lishui District",
    "country": "People's Republic of China",
    "latitude": 31.6529,
    "longitude": 119.02311,
    "population": 5094000
  },
  {
    "id": "3711474",
    "wikiDataId": "Q197519",
    "name": "Zhaotong",
    "country": "People's Republic of China",
    "latitude": 27.31667,
    "longitude": 103.71667,
    "population": 5092611
  },
  {
    "id": "3705471",
    "wikiDataId": "Q68814",
    "name": "Zhangzhou",
    "country": "People's Republic of China",
    "latitude": 24.51333,
    "longitude": 117.65556,
    "population": 5054328
  },
  {
    "id": "3710515",
    "wikiDataId": "Q151958",
    "name": "Yueyang",
    "country": "People's Republic of China",
    "latitude": 29.32472,
    "longitude": 113.302,
    "population": 5051922
  },
  {
    "id": "3706370",
    "wikiDataId": "Q363326",
    "name": "Yichun",
    "country": "People's Republic of China",
    "latitude": 27.83333,
    "longitude": 114.4,
    "population": 5007702
  },
  {
    "id": "3708274",
    "wikiDataId": "Q360769",
    "name": "Bozhou",
    "country": "People's Republic of China",
    "latitude": 33.87722,
    "longitude": 115.77028,
    "population": 4996844
  },
  {
    "id": "3707801",
    "wikiDataId": "Q404116",
    "name": "Pingdingshan",
    "country": "People's Republic of China",
    "latitude": 33.73499,
    "longitude": 113.29992,
    "population": 4987137
  },
  {
    "id": "3712352",
    "wikiDataId": "Q57787",
    "name": "Suqian",
    "country": "People's Republic of China",
    "latitude": 33.933056,
    "longitude": 118.283056,
    "population": 4986192
  },
  {
    "id": "3321746",
    "wikiDataId": "Q2281238",
    "name": "Gujranwala District",
    "country": "Pakistan",
    "latitude": 32.166666666,
    "longitude": 73.833333333,
    "population": 4966338
  },
  {
    "id": "174469",
    "wikiDataId": "Q2346838",
    "name": "City of Johannesburg Metropolitan Municipality",
    "country": "South Africa",
    "latitude": -26.204970437,
    "longitude": 28.040605722,
    "population": 4949347
  },
  {
    "id": "3706284",
    "wikiDataId": "Q189633",
    "name": "Guilin",
    "country": "People's Republic of China",
    "latitude": 25.266666666,
    "longitude": 110.283333333,
    "population": 4931137
  },
  {
    "id": "3318655",
    "wikiDataId": "Q15341",
    "name": "Guntur district",
    "country": "India",
    "latitude": 16.3,
    "longitude": 80.45,
    "population": 4887813
  },
  {
    "id": "3713261",
    "wikiDataId": "Q426130",
    "name": "Mianyang",
    "country": "People's Republic of China",
    "latitude": 31.46688,
    "longitude": 104.73847,
    "population": 4868243
  },
  {
    "id": "3708634",
    "wikiDataId": "Q666884",
    "name": "Liangshan Yi Autonomous Prefecture",
    "country": "People's Republic of China",
    "latitude": 27.87644,
    "longitude": 102.1018,
    "population": 4858359
  },
  {
    "id": "3184723",
    "wikiDataId": "Q1478937",
    "name": "Howrah district",
    "country": "India",
    "latitude": 22.5736296,
    "longitude": 88.3251045,
    "population": 4850029
  },
  {
    "id": "3709850",
    "wikiDataId": "Q208471",
    "name": "Kaifeng",
    "country": "People's Republic of China",
    "latitude": 34.795,
    "longitude": 114.345,
    "population": 4824016
  },
  {
    "id": "3198796",
    "wikiDataId": "Q77731",
    "name": "Muzaffarpur district",
    "country": "India",
    "latitude": 26.166666666,
    "longitude": 85.416666666,
    "population": 4801062
  },
  {
    "id": "3705592",
    "wikiDataId": "Q59132",
    "name": "Jiangmen",
    "country": "People's Republic of China",
    "latitude": 22.58333,
    "longitude": 113.08333,
    "population": 4798090
  },
  {
    "id": "3208486",
    "wikiDataId": "Q815464",
    "name": "Belagavi district",
    "country": "India",
    "latitude": 15.85,
    "longitude": 74.55,
    "population": 4779661
  },
  {
    "id": "3707023",
    "wikiDataId": "Q73073",
    "name": "Yuncheng",
    "country": "People's Republic of China",
    "latitude": 35.02306,
    "longitude": 110.99278,
    "population": 4774508
  },
  {
    "id": "3389720",
    "wikiDataId": "Q1345006",
    "name": "Moradabad district",
    "country": "India",
    "latitude": 28.84,
    "longitude": 78.76,
    "population": 4772006
  },
  {
    "id": "159529",
    "wikiDataId": "Q2281168",
    "name": "Multan District",
    "country": "Pakistan",
    "latitude": 30.083333333,
    "longitude": 71.666666666,
    "population": 4745109
  },
  {
    "id": "170962",
    "wikiDataId": "Q26676",
    "name": "Harris County",
    "country": "United States",
    "latitude": 29.86,
    "longitude": -95.39,
    "population": 4731145
  },
  {
    "id": "110260",
    "wikiDataId": "Q1960",
    "name": "Dar es Salaam",
    "country": "Tanzania",
    "latitude": -6.816111111,
    "longitude": 39.280277777,
    "population": 4715000
  },
  {
    "id": "3713956",
    "wikiDataId": "Q198370",
    "name": "Zibo",
    "country": "People's Republic of China",
    "latitude": 36.783056,
    "longitude": 118.049722,
    "population": 4704138
  },
  {
    "id": "105153",
    "wikiDataId": "Q374365",
    "name": "Jeddah",
    "country": "Saudi Arabia",
    "latitude": 21.542777777,
    "longitude": 39.172777777,
    "population": 4697000
  },
  {
    "id": "3710540",
    "wikiDataId": "Q126995",
    "name": "Weinan",
    "country": "People's Republic of China",
    "latitude": 34.49962,
    "longitude": 109.46838,
    "population": 4688744
  },
  {
    "id": "3498026",
    "wikiDataId": "Q1773444",
    "name": "Ghaziabad district",
    "country": "India",
    "latitude": 28.6667,
    "longitude": 77.4333,
    "population": 4681645
  },
  {
    "id": "3713115",
    "wikiDataId": "Q416748",
    "name": "Chenzhou",
    "country": "People's Republic of China",
    "latitude": 25.84347,
    "longitude": 113.05378,
    "population": 4667134
  },
  {
    "id": "147891",
    "wikiDataId": "Q305259",
    "name": "Nagpur division",
    "country": "India",
    "latitude": 21.16,
    "longitude": 79.08,
    "population": 4653570
  },
  {
    "id": "3508073",
    "wikiDataId": "Q15116",
    "name": "Chennai district",
    "country": "India",
    "latitude": 13.083888888,
    "longitude": 80.27,
    "population": 4646732
  },
  {
    "id": "3184772",
    "wikiDataId": "Q793553",
    "name": "Azamgarh district",
    "country": "India",
    "latitude": 26.06,
    "longitude": 83.1861,
    "population": 4613913
  },
  {
    "id": "3705433",
    "wikiDataId": "Q216077",
    "name": "Jiujiang",
    "country": "People's Republic of China",
    "latitude": 29.70475,
    "longitude": 116.00206,
    "population": 4600276
  },
  {
    "id": "3712063",
    "wikiDataId": "Q57756",
    "name": "Lianyungang",
    "country": "People's Republic of China",
    "latitude": 34.59057,
    "longitude": 119.1801,
    "population": 4599360
  },
  {
    "id": "147540",
    "wikiDataId": "Q1773416",
    "name": "Lucknow district",
    "country": "India",
    "latitude": 26.75,
    "longitude": 81,
    "population": 4589838
  },
  {
    "id": "143464",
    "wikiDataId": "Q10562",
    "name": "Upper Bavaria",
    "country": "Germany",
    "latitude": 48.133333,
    "longitude": 11.566667,
    "population": 4588944
  },
  {
    "id": "3705550",
    "wikiDataId": "Q427265",
    "name": "Yibin",
    "country": "People's Republic of China",
    "latitude": 28.75961,
    "longitude": 104.63997,
    "population": 4588804
  },
  {
    "id": "3711980",
    "wikiDataId": "Q416922",
    "name": "Huaihua",
    "country": "People's Republic of China",
    "latitude": 27.549444,
    "longitude": 109.959167,
    "population": 4587594
  },
  {
    "id": "3416497",
    "wikiDataId": "Q2089152",
    "name": "Kanpur Nagar district",
    "country": "India",
    "latitude": 26.46,
    "longitude": 80.33,
    "population": 4581268
  },
  {
    "id": "3684800",
    "wikiDataId": "Q13785",
    "name": "Cavite",
    "country": "Philippines",
    "latitude": 14.266666666,
    "longitude": 120.866666666,
    "population": 4573884
  },
  {
    "id": "3706655",
    "wikiDataId": "Q57906",
    "name": "Yangzhou",
    "country": "People's Republic of China",
    "latitude": 32.39117,
    "longitude": 119.43625,
    "population": 4559797
  },
  {
    "id": "3706998",
    "wikiDataId": "Q57818",
    "name": "Huai'an",
    "country": "People's Republic of China",
    "latitude": 33.505833333,
    "longitude": 119.139166666,
    "population": 4556230
  },
  {
    "id": "3503609",
    "wikiDataId": "Q401744",
    "name": "Ahilyanagar district",
    "country": "India",
    "latitude": 19.098055555,
    "longitude": 74.7325,
    "population": 4543159
  },
  {
    "id": "3100049",
    "wikiDataId": "Q15382",
    "name": "Krishna district",
    "country": "India",
    "latitude": 16.194444444,
    "longitude": 81.149444444,
    "population": 4517398
  },
  {
    "id": "3706670",
    "wikiDataId": "Q57931",
    "name": "Taizhou",
    "country": "People's Republic of China",
    "latitude": 32.483056,
    "longitude": 119.9,
    "population": 4512762
  },
  {
    "id": "3306064",
    "wikiDataId": "Q2315579",
    "name": "Sialkot District",
    "country": "Pakistan",
    "latitude": 32.52,
    "longitude": 74.55,
    "population": 4499394
  },
  {
    "id": "56557",
    "wikiDataId": "Q1348",
    "name": "Kolkata",
    "country": "India",
    "latitude": 22.5675,
    "longitude": 88.37,
    "population": 4496694
  },
  {
    "id": "3457128",
    "wikiDataId": "Q2088496",
    "name": "Kolkata district",
    "country": "India",
    "latitude": 22.5726723,
    "longitude": 88.3638815,
    "population": 4496694
  },
  {
    "id": "3720752",
    "wikiDataId": "Q739890",
    "name": "Kashgar Prefecture",
    "country": "People's Republic of China",
    "latitude": 38.46299,
    "longitude": 77.10982,
    "population": 4496377
  },
  {
    "id": "3324315",
    "wikiDataId": "Q1356060",
    "name": "Jaunpur district",
    "country": "India",
    "latitude": 25.75,
    "longitude": 82.75,
    "population": 4494204
  },
  {
    "id": "3714313",
    "wikiDataId": "Q35997",
    "name": "İzmir",
    "country": "Turkey",
    "latitude": 38.41273,
    "longitude": 27.13838,
    "population": 4493242
  },
  {
    "id": "3388660",
    "wikiDataId": "Q77474",
    "name": "Madhubani district",
    "country": "India",
    "latitude": 26.35,
    "longitude": 86.08,
    "population": 4487379
  },
  {
    "id": "22676",
    "wikiDataId": "Q7927",
    "name": "Cologne Government Region",
    "country": "Germany",
    "latitude": 50.83,
    "longitude": 6.92,
    "population": 4486282
  },
  {
    "id": "3425750",
    "wikiDataId": "Q1812539",
    "name": "Sitapur district",
    "country": "India",
    "latitude": 27.5,
    "longitude": 80.916666666,
    "population": 4483992
  },
  {
    "id": "3725164",
    "wikiDataId": "Q999102",
    "name": "Honghe Hani and Yi Autonomous Prefecture",
    "country": "People's Republic of China",
    "latitude": 23.51675,
    "longitude": 102.97389,
    "population": 4478422
  },
  {
    "id": "3724315",
    "wikiDataId": "Q807049",
    "name": "Bao'an District",
    "country": "People's Republic of China",
    "latitude": 22.66524,
    "longitude": 113.8468,
    "population": 4476554
  },
  {
    "id": "3708799",
    "wikiDataId": "Q363262",
    "name": "Ji'an",
    "country": "People's Republic of China",
    "latitude": 27.11716,
    "longitude": 114.97927,
    "population": 4469176
  },
  {
    "id": "3918920",
    "wikiDataId": "Q1135779",
    "name": "Emilia",
    "country": "Italy",
    "latitude": 44.75,
    "longitude": 11,
    "population": 4459477
  },
  {
    "id": "26400",
    "wikiDataId": "Q81788",
    "name": "Giza",
    "country": "Egypt",
    "latitude": 29.987,
    "longitude": 31.2118,
    "population": 4458135
  },
  {
    "id": "159814",
    "wikiDataId": "Q101575",
    "name": "Poznań County",
    "country": "Poland",
    "latitude": 52.4,
    "longitude": 16.916666666,
    "population": 4451212
  },
  {
    "id": "3332314",
    "wikiDataId": "Q1797378",
    "name": "Bareilly district",
    "country": "India",
    "latitude": 28.416666666,
    "longitude": 79.383333333,
    "population": 4448359
  },
  {
    "id": "3226577",
    "wikiDataId": "Q1144349",
    "name": "Gorakhpur district",
    "country": "India",
    "latitude": 26.755,
    "longitude": 83.3739,
    "population": 4440895
  },
  {
    "id": "131204",
    "wikiDataId": "Q34647",
    "name": "Johannesburg",
    "country": "South Africa",
    "latitude": -26.204361111,
    "longitude": 28.041638888,
    "population": 4434827
  },
  {
    "id": "172113",
    "wikiDataId": "Q58691",
    "name": "Maricopa County",
    "country": "United States",
    "latitude": 33.513888888,
    "longitude": -112.475833333,
    "population": 4420568
  },
  {
    "id": "3184834",
    "wikiDataId": "Q606343",
    "name": "Agra district",
    "country": "India",
    "latitude": 27.083333333,
    "longitude": 77.966666666,
    "population": 4418797
  },
  {
    "id": "3709555",
    "wikiDataId": "Q59223",
    "name": "Zhongshan",
    "country": "People's Republic of China",
    "latitude": 22.533333333,
    "longitude": 113.35,
    "population": 4418060
  },
  {
    "id": "3708100",
    "wikiDataId": "Q360702",
    "name": "Lu'an",
    "country": "People's Republic of China",
    "latitude": 31.73561,
    "longitude": 116.51688,
    "population": 4393699
  },
  {
    "id": "147613",
    "wikiDataId": "Q49173",
    "name": "Gaya district",
    "country": "India",
    "latitude": 24.75,
    "longitude": 85,
    "population": 4391418
  },
  {
    "id": "3705334",
    "wikiDataId": "Q404529",
    "name": "Xuchang",
    "country": "People's Republic of China",
    "latitude": 34.02444,
    "longitude": 113.82014,
    "population": 4379998
  },
  {
    "id": "3705972",
    "wikiDataId": "Q183584",
    "name": "Lanzhou",
    "country": "People's Republic of China",
    "latitude": 36.06171,
    "longitude": 103.83177,
    "population": 4359446
  },
  {
    "id": "82491",
    "wikiDataId": "Q182984",
    "name": "Kano",
    "country": "Nigeria",
    "latitude": 12,
    "longitude": 8.516666666,
    "population": 4348000
  },
  {
    "id": "3333091",
    "wikiDataId": "Q2315589",
    "name": "Sargodha District",
    "country": "Pakistan",
    "latitude": 32.08,
    "longitude": 72.67,
    "population": 4334448
  },
  {
    "id": "3225178",
    "wikiDataId": "Q549467",
    "name": "Peshawar District",
    "country": "Pakistan",
    "latitude": 33.98512,
    "longitude": 71.55784,
    "population": 4331959
  },
  {
    "id": "3347730",
    "wikiDataId": "Q1797263",
    "name": "Solapur district",
    "country": "India",
    "latitude": 17.35,
    "longitude": 75.16,
    "population": 4317756
  },
  {
    "id": "3708892",
    "wikiDataId": "Q571808",
    "name": "Guigang",
    "country": "People's Republic of China",
    "latitude": 23.114444444,
    "longitude": 109.594444444,
    "population": 4316262
  },
  {
    "id": "3101490",
    "wikiDataId": "Q15394",
    "name": "Visakhapatnam district",
    "country": "India",
    "latitude": 17.688377777,
    "longitude": 83.218758333,
    "population": 4290589
  },
  {
    "id": "3218361",
    "wikiDataId": "Q2281250",
    "name": "Bahawalpur District",
    "country": "Pakistan",
    "latitude": 28.833333333,
    "longitude": 71.666666666,
    "population": 4284964
  },
  {
    "id": "216",
    "wikiDataId": "Q5838",
    "name": "Kabul",
    "country": "Afghanistan",
    "latitude": 34.532777777,
    "longitude": 69.165833333,
    "population": 4273156
  },
  {
    "id": "3711660",
    "wikiDataId": "Q71339",
    "name": "Xiaogan",
    "country": "People's Republic of China",
    "latitude": 30.92689,
    "longitude": 113.92221,
    "population": 4270371
  },
  {
    "id": "3473830",
    "wikiDataId": "Q100117",
    "name": "Samastipur district",
    "country": "India",
    "latitude": 25.8625126,
    "longitude": 85.7826134,
    "population": 4261566
  },
  {
    "id": "3709874",
    "wikiDataId": "Q425492",
    "name": "Luzhou",
    "country": "People's Republic of China",
    "latitude": 28.89182,
    "longitude": 105.44093,
    "population": 4254149
  },
  {
    "id": "3845472",
    "wikiDataId": "Q1797291",
    "name": "Jalgaon district",
    "country": "India",
    "latitude": 18.65,
    "longitude": 75.1,
    "population": 4229917
  },
  {
    "id": "3453177",
    "wikiDataId": "Q3703",
    "name": "Bamako",
    "country": "Mali",
    "latitude": 12.645833333,
    "longitude": -7.992222222,
    "population": 4227569
  },
  {
    "id": "3713712",
    "wikiDataId": "Q58724",
    "name": "Hengshui",
    "country": "People's Republic of China",
    "latitude": 37.73484,
    "longitude": 115.68599,
    "population": 4212933
  },
  {
    "id": "2989707",
    "wikiDataId": "Q3308177",
    "name": "Quetta Division",
    "country": "Pakistan",
    "latitude": 30.25,
    "longitude": 68.5,
    "population": 4174562
  },
  {
    "id": "3203096",
    "wikiDataId": "Q15213",
    "name": "Chittoor district",
    "country": "India",
    "latitude": 13.21622,
    "longitude": 79.0997,
    "population": 4174064
  },
  {
    "id": "143478",
    "wikiDataId": "Q8172",
    "name": "Stuttgart Government Region",
    "country": "Germany",
    "latitude": 49,
    "longitude": 9.67,
    "population": 4167550
  },
  {
    "id": "3503311",
    "wikiDataId": "Q578285",
    "name": "Vadodara district",
    "country": "India",
    "latitude": 22.2931,
    "longitude": 73.1935,
    "population": 4165626
  },
  {
    "id": "3883526",
    "wikiDataId": "Q360374",
    "name": "Anqing",
    "country": "People's Republic of China",
    "latitude": 30.66266,
    "longitude": 116.55911,
    "population": 4165284
  },
  {
    "id": "3706399",
    "wikiDataId": "Q38968",
    "name": "Liuzhou",
    "country": "People's Republic of China",
    "latitude": 24.93333,
    "longitude": 109.36667,
    "population": 4157934
  },
  {
    "id": "3302345",
    "wikiDataId": "Q2365710",
    "name": "Muzaffarnagar district",
    "country": "India",
    "latitude": 29.45,
    "longitude": 77.583333333,
    "population": 4143512
  },
  {
    "id": "3710167",
    "wikiDataId": "Q58650",
    "name": "Zhangjiakou",
    "country": "People's Republic of China",
    "latitude": 40.81078,
    "longitude": 114.88114,
    "population": 4118908
  },
  {
    "id": "3709406",
    "wikiDataId": "Q59164",
    "name": "Zhaoqing",
    "country": "People's Republic of China",
    "latitude": 23.04893,
    "longitude": 112.46091,
    "population": 4113594
  },
  {
    "id": "3261467",
    "wikiDataId": "Q1030918",
    "name": "Malappuram district",
    "country": "India",
    "latitude": 11.03,
    "longitude": 76.05,
    "population": 4112920
  },
  {
    "id": "3423045",
    "wikiDataId": "Q1772822",
    "name": "Hardoi district",
    "country": "India",
    "latitude": 27.402,
    "longitude": 80.133,
    "population": 4092845
  },
  {
    "id": "3442530",
    "wikiDataId": "Q2503839",
    "name": "Kasur District",
    "country": "Pakistan",
    "latitude": 31,
    "longitude": 74.166666666,
    "population": 4084286
  },
  {
    "id": "3273029",
    "wikiDataId": "Q15212",
    "name": "Anantapuramu district",
    "country": "India",
    "latitude": 14.68,
    "longitude": 77.6,
    "population": 4081148
  },
  {
    "id": "3713854",
    "wikiDataId": "Q205922",
    "name": "Qiqihar",
    "country": "People's Republic of China",
    "latitude": 47.33981,
    "longitude": 123.95124,
    "population": 4067489
  },
  {
    "id": "3196691",
    "wikiDataId": "Q2295914",
    "name": "Raipur district",
    "country": "India",
    "latitude": 20.916666666,
    "longitude": 82,
    "population": 4063872
  },
  {
    "id": "3714124",
    "wikiDataId": "Q16959",
    "name": "Ürümqi",
    "country": "People's Republic of China",
    "latitude": 43.8225,
    "longitude": 87.6125,
    "population": 4054369
  },
  {
    "id": "3314179",
    "wikiDataId": "Q15381",
    "name": "Kurnool district",
    "country": "India",
    "latitude": 15.83,
    "longitude": 78.05,
    "population": 4053463
  },
  {
    "id": "3423732",
    "wikiDataId": "Q15380",
    "name": "Mahabubnagar district",
    "country": "India",
    "latitude": 16.46,
    "longitude": 77.56,
    "population": 4053028
  },
  {
    "id": "3453305",
    "wikiDataId": "Q244898",
    "name": "New Taipei",
    "country": "Taiwan",
    "latitude": 25.0125,
    "longitude": 121.465,
    "population": 4046037
  },
  {
    "id": "143473",
    "wikiDataId": "Q7932",
    "name": "Darmstadt Government Region",
    "country": "Germany",
    "latitude": 50.08,
    "longitude": 8.75,
    "population": 4039611
  },
  {
    "id": "3681886",
    "wikiDataId": "Q952184",
    "name": "Tangail District",
    "country": "Bangladesh",
    "latitude": 24.3,
    "longitude": 89.92,
    "population": 4037608
  },
  {
    "id": "3708366",
    "wikiDataId": "Q570829",
    "name": "Chifeng",
    "country": "People's Republic of China",
    "latitude": 42.26833,
    "longitude": 118.96361,
    "population": 4035967
  },
  {
    "id": "3325142",
    "wikiDataId": "Q1755447",
    "name": "Lakhimpur Kheri district",
    "country": "India",
    "latitude": 27.95,
    "longitude": 80.77,
    "population": 4021243
  },
  {
    "id": "3707906",
    "wikiDataId": "Q71266",
    "name": "Yichang",
    "country": "People's Republic of China",
    "latitude": 30.708333,
    "longitude": 111.280278,
    "population": 4017607
  },
  {
    "id": "3721969",
    "wikiDataId": "Q1001406",
    "name": "Longgang District",
    "country": "People's Republic of China",
    "latitude": 22.72289,
    "longitude": 114.26326,
    "population": 4015300
  },
  {
    "id": "67944",
    "wikiDataId": "Q3805",
    "name": "Amman",
    "country": "Jordan",
    "latitude": 31.95,
    "longitude": 35.933333333,
    "population": 4007526
  },
  {
    "id": "174504",
    "wikiDataId": "Q1185115",
    "name": "City of Cape Town",
    "country": "South Africa",
    "latitude": -34,
    "longitude": 18.5,
    "population": 4005016
  },
  {
    "id": "3099896",
    "wikiDataId": "Q15157",
    "name": "Kanchipuram district",
    "country": "India",
    "latitude": 12.67,
    "longitude": 79.99,
    "population": 3998252
  },
  {
    "id": "3637808",
    "wikiDataId": "Q2049820",
    "name": "Malda district",
    "country": "India",
    "latitude": 25,
    "longitude": 88.15,
    "population": 3988845
  },
  {
    "id": "14251",
    "wikiDataId": "Q114045",
    "name": "Chuzhou",
    "country": "People's Republic of China",
    "latitude": 32.60084,
    "longitude": 118.08813,
    "population": 3987054
  },
  {
    "id": "14482",
    "wikiDataId": "Q73156",
    "name": "Linfen",
    "country": "People's Republic of China",
    "latitude": 36.08889,
    "longitude": 111.51889,
    "population": 3976481
  },
  {
    "id": "3709517",
    "wikiDataId": "Q59213",
    "name": "Qingyuan",
    "country": "People's Republic of China",
    "latitude": 23.7,
    "longitude": 113.03333,
    "population": 3969473
  },
  {
    "id": "3709070",
    "wikiDataId": "Q497341",
    "name": "Xianyang",
    "country": "People's Republic of China",
    "latitude": 34.33778,
    "longitude": 108.70261,
    "population": 3959842
  },
  {
    "id": "147443",
    "wikiDataId": "Q100146",
    "name": "Saran District",
    "country": "India",
    "latitude": 25.91666667,
    "longitude": 84.75,
    "population": 3951862
  },
  {
    "id": "3519123",
    "wikiDataId": "Q612",
    "name": "Dubai",
    "country": "United Arab Emirates",
    "latitude": 25.269722222,
    "longitude": 55.309444444,
    "population": 3944751
  },
  {
    "id": "3280491",
    "wikiDataId": "Q15340",
    "name": "Hyderabad district",
    "country": "India",
    "latitude": 17.40164,
    "longitude": 78.48976,
    "population": 3943323
  },
  {
    "id": "3317103",
    "wikiDataId": "Q49160",
    "name": "Darbhanga district",
    "country": "India",
    "latitude": 26,
    "longitude": 86,
    "population": 3937385
  },
  {
    "id": "3101776",
    "wikiDataId": "Q15404",
    "name": "West Godavari district",
    "country": "India",
    "latitude": 16.53101,
    "longitude": 81.6205,
    "population": 3936966
  },
  {
    "id": "3221370",
    "wikiDataId": "Q15206",
    "name": "Vellore district",
    "country": "India",
    "latitude": 12.911111111,
    "longitude": 79.136111111,
    "population": 3936331
  },
  {
    "id": "3473835",
    "wikiDataId": "Q100124",
    "name": "West Champaran district",
    "country": "India",
    "latitude": 26.8,
    "longitude": 84.5,
    "population": 3935042
  },
  {
    "id": "3710016",
    "wikiDataId": "Q373687",
    "name": "Binzhou",
    "country": "People's Republic of China",
    "latitude": 37.380555555,
    "longitude": 118.0125,
    "population": 3928568
  },
  {
    "id": "3673120",
    "wikiDataId": "Q2208354",
    "name": "Narayanganj District",
    "country": "Bangladesh",
    "latitude": 23.6,
    "longitude": 90.5,
    "population": 3909138
  },
  {
    "id": "47028",
    "wikiDataId": "Q182059",
    "name": "Kumasi",
    "country": "Ghana",
    "latitude": 6.7,
    "longitude": -1.625,
    "population": 3903480
  },
  {
    "id": "3713376",
    "wikiDataId": "Q198266",
    "name": "Zhuzhou",
    "country": "People's Republic of China",
    "latitude": 27.83333,
    "longitude": 113.15,
    "population": 3902738
  },
  {
    "id": "3855177",
    "wikiDataId": "Q65",
    "name": "Los Angeles",
    "country": "United States",
    "latitude": 34.05223,
    "longitude": -118.24368,
    "population": 3898747
  },
  {
    "id": "3684717",
    "wikiDataId": "Q13755",
    "name": "Bulacan",
    "country": "Philippines",
    "latitude": 15,
    "longitude": 121.083333333,
    "population": 3876806
  },
  {
    "id": "3509476",
    "wikiDataId": "Q1797312",
    "name": "Kolhapur district",
    "country": "India",
    "latitude": 16.697902777,
    "longitude": 74.225369444,
    "population": 3876001
  },
  {
    "id": "3712036",
    "wikiDataId": "Q1934075",
    "name": "West Riding of Yorkshire",
    "country": "United Kingdom",
    "latitude": 53.91667,
    "longitude": -1.91667,
    "population": 3873675
  },
  {
    "id": "3709441",
    "wikiDataId": "Q59184",
    "name": "Meizhou",
    "country": "People's Republic of China",
    "latitude": 24.29977,
    "longitude": 116.11913,
    "population": 3873239
  },
  {
    "id": "3316530",
    "wikiDataId": "Q1351487",
    "name": "Jalpaiguri district",
    "country": "India",
    "latitude": 26.52,
    "longitude": 88.73,
    "population": 3872846
  },
  {
    "id": "3625483",
    "wikiDataId": "Q2093352",
    "name": "Sylhet District",
    "country": "Bangladesh",
    "latitude": 24.883333333,
    "longitude": 91.866666666,
    "population": 3857123
  },
  {
    "id": "3710916",
    "wikiDataId": "Q147187",
    "name": "Zaozhuang",
    "country": "People's Republic of China",
    "latitude": 34.866666666,
    "longitude": 117.55,
    "population": 3855601
  },
  {
    "id": "3706007",
    "wikiDataId": "Q416669",
    "name": "Yiyang",
    "country": "People's Republic of China",
    "latitude": 28.583333333,
    "longitude": 112.333333333,
    "population": 3851564
  },
  {
    "id": "14360",
    "wikiDataId": "Q416988",
    "name": "Loudi",
    "country": "People's Republic of China",
    "latitude": 27.73444,
    "longitude": 111.99444,
    "population": 3826996
  },
  {
    "id": "3932889",
    "wikiDataId": "Q1815245",
    "name": "Rajkot district",
    "country": "India",
    "latitude": 22.3,
    "longitude": 70.78,
    "population": 3804558
  },
  {
    "id": "3438613",
    "wikiDataId": "Q1356154",
    "name": "Sultanpur district",
    "country": "India",
    "latitude": 26.25,
    "longitude": 82,
    "population": 3797117
  },
  {
    "id": "3850019",
    "wikiDataId": "Q64",
    "name": "Berlin",
    "country": "Germany",
    "latitude": 52.516666666,
    "longitude": 13.383333333,
    "population": 3782202
  },
  {
    "id": "131057",
    "wikiDataId": "Q5465",
    "name": "Cape Town",
    "country": "South Africa",
    "latitude": -33.925277777,
    "longitude": 18.423888888,
    "population": 3776313
  },
  {
    "id": "3315361",
    "wikiDataId": "Q15373",
    "name": "Karimnagar district",
    "country": "India",
    "latitude": 18.435538888,
    "longitude": 79.133711111,
    "population": 3776269
  },
  {
    "id": "3707184",
    "wikiDataId": "Q404484",
    "name": "Puyang",
    "country": "People's Republic of China",
    "latitude": 35.76392,
    "longitude": 115.02996,
    "population": 3772088
  },
  {
    "id": "3723559",
    "wikiDataId": "Q770297",
    "name": "Qiandongnan Miao and Dong Autonomous Prefecture",
    "country": "People's Republic of China",
    "latitude": 26.5738,
    "longitude": 108.59914,
    "population": 3758622
  },
  {
    "id": "68523",
    "wikiDataId": "Q38283",
    "name": "Yokohama",
    "country": "Japan",
    "latitude": 35.450333333,
    "longitude": 139.634222222,
    "population": 3757630
  },
  {
    "id": "3710413",
    "wikiDataId": "Q349985",
    "name": "Suihua",
    "country": "People's Republic of China",
    "latitude": 46.6384,
    "longitude": 126.98079,
    "population": 3756167
  },
  {
    "id": "3722489",
    "wikiDataId": "Q80946",
    "name": "Baiyun District",
    "country": "People's Republic of China",
    "latitude": 23.14222,
    "longitude": 113.26056,
    "population": 3742991
  },
  {
    "id": "3539121",
    "wikiDataId": "Q2039066",
    "name": "Bogura District",
    "country": "Bangladesh",
    "latitude": 24.78,
    "longitude": 89.35,
    "population": 3734297
  },
  {
    "id": "3501781",
    "wikiDataId": "Q15204",
    "name": "Tiruvallur district",
    "country": "India",
    "latitude": 13.1406,
    "longitude": 79.906,
    "population": 3728104
  },
  {
    "id": "3347656",
    "wikiDataId": "Q2549175",
    "name": "Recife metropolitan area",
    "country": "Brazil",
    "latitude": -23.98333,
    "longitude": -47.05,
    "population": 3726974
  },
  {
    "id": "174500",
    "wikiDataId": "Q311544",
    "name": "eThekwini Metropolitan Municipality",
    "country": "South Africa",
    "latitude": -29.866666666,
    "longitude": 31.016666666,
    "population": 3702231
  },
  {
    "id": "3033308",
    "wikiDataId": "Q592942",
    "name": "Aurangabad district",
    "country": "India",
    "latitude": 19.888786111,
    "longitude": 75.343436111,
    "population": 3701282
  },
  {
    "id": "3431120",
    "wikiDataId": "Q774452",
    "name": "Sambhajinagar division",
    "country": "India",
    "latitude": 19.888786111,
    "longitude": 75.343436111,
    "population": 3701282
  },
  {
    "id": "3689002",
    "wikiDataId": "Q13840",
    "name": "Laguna",
    "country": "Philippines",
    "latitude": 14.16666667,
    "longitude": 121.33333333,
    "population": 3687345
  },
  {
    "id": "3444799",
    "wikiDataId": "Q1434965",
    "name": "Jodhpur district",
    "country": "India",
    "latitude": 26.280555555,
    "longitude": 73.015833333,
    "population": 3687165
  },
  {
    "id": "3525154",
    "wikiDataId": "Q31910788",
    "name": "Berlin",
    "country": "Germany",
    "latitude": 52.5233,
    "longitude": 13.41377,
    "population": 3685265
  },
  {
    "id": "3425605",
    "wikiDataId": "Q1937865",
    "name": "Bijnor district",
    "country": "India",
    "latitude": 29.416666666,
    "longitude": 78.516666666,
    "population": 3682713
  },
  {
    "id": "3373373",
    "wikiDataId": "Q1815262",
    "name": "Budaun district",
    "country": "India",
    "latitude": 28.116666666,
    "longitude": 78.983333333,
    "population": 3681896
  },
  {
    "id": "3309806",
    "wikiDataId": "Q1321140",
    "name": "Varanasi district",
    "country": "India",
    "latitude": 25.333333333,
    "longitude": 83,
    "population": 3676841
  },
  {
    "id": "3253981",
    "wikiDataId": "Q449690",
    "name": "Alwar district",
    "country": "India",
    "latitude": 27.57,
    "longitude": 76.6,
    "population": 3674179
  },
  {
    "id": "3184824",
    "wikiDataId": "Q766918",
    "name": "Aligarh district",
    "country": "India",
    "latitude": 27.833333333,
    "longitude": 78.166666666,
    "population": 3673889
  },
  {
    "id": "3723165",
    "wikiDataId": "Q1023893",
    "name": "Nanhai District",
    "country": "People's Republic of China",
    "latitude": 23.03222,
    "longitude": 113.14278,
    "population": 3667247
  },
  {
    "id": "147075",
    "wikiDataId": "Q10332",
    "name": "Bandung",
    "country": "Indonesia",
    "latitude": -7.021935402,
    "longitude": 107.528074678,
    "population": 3657701
  },
  {
    "id": "147898",
    "wikiDataId": "Q766125",
    "name": "North West Delhi district",
    "country": "India",
    "latitude": 28.696388888,
    "longitude": 77.126944444,
    "population": 3656539
  },
  {
    "id": "3709452",
    "wikiDataId": "Q359990",
    "name": "Wuhu",
    "country": "People's Republic of China",
    "latitude": 31.35259,
    "longitude": 118.42947,
    "population": 3644420
  },
  {
    "id": "3709594",
    "wikiDataId": "Q515712",
    "name": "Yulin",
    "country": "People's Republic of China",
    "latitude": 38.26548,
    "longitude": 109.73881,
    "population": 3634750
  },
  {
    "id": "133518",
    "wikiDataId": "Q68585",
    "name": "Noakhali District",
    "country": "Bangladesh",
    "latitude": 22.75,
    "longitude": 91.16667,
    "population": 3625442
  },
  {
    "id": "3707239",
    "wikiDataId": "Q92277",
    "name": "Jilin City",
    "country": "People's Republic of China",
    "latitude": 43.8461,
    "longitude": 126.56157,
    "population": 3623713
  },
  {
    "id": "3271829",
    "wikiDataId": "Q1287993",
    "name": "Ghazipur district",
    "country": "India",
    "latitude": 25.583222222,
    "longitude": 83.580861111,
    "population": 3620268
  },
  {
    "id": "3705954",
    "wikiDataId": "Q363391",
    "name": "Fuzhou",
    "country": "People's Republic of China",
    "latitude": 27.95999,
    "longitude": 116.33333,
    "population": 3614866
  },
  {
    "id": "147712",
    "wikiDataId": "Q2088458",
    "name": "Bankura district",
    "country": "India",
    "latitude": 23.24,
    "longitude": 87.07,
    "population": 3596674
  },
  {
    "id": "3843978",
    "wikiDataId": "Q14267291",
    "name": "Puyang Subdistrict",
    "country": "People's Republic of China",
    "latitude": 29.45679,
    "longitude": 119.88872,
    "population": 3590000
  },
  {
    "id": "146878",
    "wikiDataId": "Q10123",
    "name": "Tangerang",
    "country": "Indonesia",
    "latitude": -6.2,
    "longitude": 106.49,
    "population": 3584770
  },
  {
    "id": "3896679",
    "wikiDataId": "Q694",
    "name": "South Holland",
    "country": "Netherlands",
    "latitude": 52,
    "longitude": 4.666666666,
    "population": 3577032
  },
  {
    "id": "143474",
    "wikiDataId": "Q7924",
    "name": "Arnsberg Government Region",
    "country": "Germany",
    "latitude": 51.32967,
    "longitude": 8.0071,
    "population": 3571898
  },
  {
    "id": "3707877",
    "wikiDataId": "Q571949",
    "name": "Baise",
    "country": "People's Republic of China",
    "latitude": 23.97748,
    "longitude": 106.51453,
    "population": 3571505
  },
  {
    "id": "147803",
    "wikiDataId": "Q1840355",
    "name": "Kushinagar district",
    "country": "India",
    "latitude": 26.9025,
    "longitude": 83.981944444,
    "population": 3564544
  },
  {
    "id": "3389029",
    "wikiDataId": "Q2315465",
    "name": "Bahawalnagar District",
    "country": "Pakistan",
    "latitude": 30,
    "longitude": 73.25,
    "population": 3550342
  },
  {
    "id": "3184747",
    "wikiDataId": "Q776213",
    "name": "Ganjam district",
    "country": "India",
    "latitude": 19.383,
    "longitude": 85.05,
    "population": 3529031
  },
  {
    "id": "3200177",
    "wikiDataId": "Q12156132",
    "name": "Muzaffargarh District",
    "country": "Pakistan",
    "latitude": 30.333333333,
    "longitude": 71.083333333,
    "population": 3528567
  },
  {
    "id": "3196839",
    "wikiDataId": "Q46785",
    "name": "Okara District",
    "country": "Pakistan",
    "latitude": 30.801380555,
    "longitude": 73.448333333,
    "population": 3515490
  },
  {
    "id": "3018951",
    "wikiDataId": "Q15399",
    "name": "Warangal district",
    "country": "India",
    "latitude": 17.95,
    "longitude": 79.5,
    "population": 3512576
  },
  {
    "id": "3520100",
    "wikiDataId": "Q2807",
    "name": "Madrid",
    "country": "Spain",
    "latitude": 40.416944444,
    "longitude": -3.703333333,
    "population": 3506730
  },
  {
    "id": "3725250",
    "wikiDataId": "Q999145",
    "name": "Wenshan Zhuang and Miao Autonomous Prefecture",
    "country": "People's Republic of China",
    "latitude": 23.6513,
    "longitude": 104.7083,
    "population": 3503218
  },
  {
    "id": "147692",
    "wikiDataId": "Q2088440",
    "name": "Birbhum district",
    "country": "India",
    "latitude": 23.91,
    "longitude": 87.527,
    "population": 3502404
  },
  {
    "id": "147050",
    "wikiDataId": "Q10340",
    "name": "Bekasi",
    "country": "Indonesia",
    "latitude": -6.3659088,
    "longitude": 107.1730863,
    "population": 3500023
  },
  {
    "id": "3072569",
    "wikiDataId": "Q1017715",
    "name": "Sadr City",
    "country": "Iraq",
    "latitude": 33.3889,
    "longitude": 44.4583,
    "population": 3500000
  },
  {
    "id": "3327113",
    "wikiDataId": "Q1752328",
    "name": "Bulandshahr district",
    "country": "India",
    "latitude": 28.416666666,
    "longitude": 77.833333333,
    "population": 3499171
  },
  {
    "id": "3436443",
    "wikiDataId": "Q172482",
    "name": "Ludhiana district",
    "country": "India",
    "latitude": 30.883333333,
    "longitude": 75.85,
    "population": 3498739
  },
  {
    "id": "3707147",
    "wikiDataId": "Q404429",
    "name": "Jiaozuo",
    "country": "People's Republic of China",
    "latitude": 35.22904,
    "longitude": 113.2304,
    "population": 3496000
  },
  {
    "id": "147400",
    "wikiDataId": "Q100130",
    "name": "Vaishali district",
    "country": "India",
    "latitude": 25.986595,
    "longitude": 85.125589,
    "population": 3495021
  },
  {
    "id": "3811594",
    "wikiDataId": "Q1001390",
    "name": "Qiannan Buyei and Miao Autonomous Prefecture",
    "country": "People's Republic of China",
    "latitude": 26.06596,
    "longitude": 107.11856,
    "population": 3494385
  },
  {
    "id": "3202884",
    "wikiDataId": "Q15384",
    "name": "Nalgonda district",
    "country": "India",
    "latitude": 17.1,
    "longitude": 79.3,
    "population": 3488809
  },
  {
    "id": "3513733",
    "wikiDataId": "Q1812548",
    "name": "Bahraich district",
    "country": "India",
    "latitude": 27.75,
    "longitude": 81.75,
    "population": 3487731
  },
  {
    "id": "3278844",
    "wikiDataId": "Q15192",
    "name": "Salem district",
    "country": "India",
    "latitude": 11.6646,
    "longitude": 78.146,
    "population": 3482056
  },
  {
    "id": "3428043",
    "wikiDataId": "Q1797326",
    "name": "Saharanpur district",
    "country": "India",
    "latitude": 29.9,
    "longitude": 77.683333333,
    "population": 3466382
  },
  {
    "id": "3260329",
    "wikiDataId": "Q15205",
    "name": "Viluppuram district",
    "country": "India",
    "latitude": 11.9547,
    "longitude": 79.527730555,
    "population": 3458873
  },
  {
    "id": "3200248",
    "wikiDataId": "Q15136",
    "name": "Coimbatore district",
    "country": "India",
    "latitude": 11.0125,
    "longitude": 76.971388888,
    "population": 3458045
  },
  {
    "id": "3708142",
    "wikiDataId": "Q425996",
    "name": "Deyang",
    "country": "People's Republic of China",
    "latitude": 31.12892,
    "longitude": 104.39499,
    "population": 3456161
  },
  {
    "id": "3721640",
    "wikiDataId": "Q71415",
    "name": "Enshi Tujia and Miao Autonomous Prefecture",
    "country": "People's Republic of China",
    "latitude": 30.1981,
    "longitude": 109.67555,
    "population": 3456136
  },
  {
    "id": "75187",
    "wikiDataId": "Q2382271",
    "name": "Catemaco Municipality",
    "country": "Mexico",
    "latitude": 18.45093,
    "longitude": -95.05263,
    "population": 3453456
  },
  {
    "id": "3453077",
    "wikiDataId": "Q16520",
    "name": "Busan",
    "country": "South Korea",
    "latitude": 35.18,
    "longitude": 129.075,
    "population": 3453198
  },
  {
    "id": "3722068",
    "wikiDataId": "Q394701",
    "name": "Chaoyang District",
    "country": "People's Republic of China",
    "latitude": 39.92038,
    "longitude": 116.43737,
    "population": 3452460
  },
  {
    "id": "3712791",
    "wikiDataId": "Q535534",
    "name": "Hohhot",
    "country": "People's Republic of China",
    "latitude": 40.81056,
    "longitude": 111.65222,
    "population": 3446100
  },
  {
    "id": "3381286",
    "wikiDataId": "Q1764627",
    "name": "Meerut district",
    "country": "India",
    "latitude": 28.99,
    "longitude": 77.7,
    "population": 3443689
  },
  {
    "id": "3101671",
    "wikiDataId": "Q1937857",
    "name": "Gonda district",
    "country": "India",
    "latitude": 27.25,
    "longitude": 82,
    "population": 3433919
  },
  {
    "id": "3413412",
    "wikiDataId": "Q2418982",
    "name": "Vehari District",
    "country": "Pakistan",
    "latitude": 30.04194,
    "longitude": 72.35278,
    "population": 3430421
  },
  {
    "id": "147426",
    "wikiDataId": "Q33159524",
    "name": "Sītāmarhi",
    "country": "India",
    "latitude": 26.66667,
    "longitude": 85.5,
    "population": 3423574
  },
  {
    "id": "3705427",
    "wikiDataId": "Q572089",
    "name": "Hechi",
    "country": "People's Republic of China",
    "latitude": 24.692777777,
    "longitude": 108.085,
    "population": 3417945
  },
  {
    "id": "3192708",
    "wikiDataId": "Q6373961",
    "name": "Kasai Province",
    "country": "Democratic Republic of the Congo",
    "latitude": -5.35,
    "longitude": 21.41666667,
    "population": 3417000
  },
  {
    "id": "3689354",
    "wikiDataId": "Q13874",
    "name": "Rizal",
    "country": "Philippines",
    "latitude": 14.666666666,
    "longitude": 121.25,
    "population": 3416541
  },
  {
    "id": "26903",
    "wikiDataId": "Q3561",
    "name": "Algiers",
    "country": "Algeria",
    "latitude": 36.776388888,
    "longitude": 3.058611111,
    "population": 3415811
  },
  {
    "id": "3589659",
    "wikiDataId": "Q976848",
    "name": "Wakiso District",
    "country": "Uganda",
    "latitude": 0.166666666,
    "longitude": 32.5,
    "population": 3411177
  },
  {
    "id": "3100340",
    "wikiDataId": "Q1321157",
    "name": "Raebareli district",
    "country": "India",
    "latitude": 26.23,
    "longitude": 81.24,
    "population": 3405559
  },
  {
    "id": "3684720",
    "wikiDataId": "Q13752",
    "name": "Bohol",
    "country": "Philippines",
    "latitude": 9.83333,
    "longitude": 124.16667,
    "population": 3400522
  },
  {
    "id": "3706464",
    "wikiDataId": "Q73186",
    "name": "Lüliang",
    "country": "People's Republic of China",
    "latitude": 37.52028,
    "longitude": 111.13545,
    "population": 3398431
  },
  {
    "id": "147477",
    "wikiDataId": "Q15390",
    "name": "Prakasam district",
    "country": "India",
    "latitude": 15.5,
    "longitude": 80.05,
    "population": 3397448
  },
  {
    "id": "54910",
    "wikiDataId": "Q47916",
    "name": "Lucknow",
    "country": "India",
    "latitude": 26.847,
    "longitude": 80.947,
    "population": 3382000
  },
  {
    "id": "3707176",
    "wikiDataId": "Q73045",
    "name": "Jinzhong",
    "country": "People's Republic of China",
    "latitude": 37.69332,
    "longitude": 112.74164,
    "population": 3379498
  },
  {
    "id": "174505",
    "wikiDataId": "Q326891",
    "name": "City of Ekurhuleni Metropolitan Municipality",
    "country": "South Africa",
    "latitude": -26.166666666,
    "longitude": 28.333333333,
    "population": 3379104
  },
  {
    "id": "3515803",
    "wikiDataId": "Q1270617",
    "name": "Mashhad County",
    "country": "Iran",
    "latitude": 36.283333333,
    "longitude": 59.666666666,
    "population": 3372660
  },
  {
    "id": "3707794",
    "wikiDataId": "Q42664",
    "name": "Huzhou",
    "country": "People's Republic of China",
    "latitude": 30.8703,
    "longitude": 120.0933,
    "population": 3367579
  },
  {
    "id": "3424074",
    "wikiDataId": "Q48787",
    "name": "Khanewal District",
    "country": "Pakistan",
    "latitude": 30.31,
    "longitude": 71.82,
    "population": 3364077
  },
  {
    "id": "159512",
    "wikiDataId": "Q24440",
    "name": "Rawalpindi District",
    "country": "Pakistan",
    "latitude": 33.333333333,
    "longitude": 73.25,
    "population": 3363911
  },
  {
    "id": "3055619",
    "wikiDataId": "Q692389",
    "name": "Nanded district",
    "country": "India",
    "latitude": 19.16,
    "longitude": 77.32,
    "population": 3361292
  },
  {
    "id": "3642784",
    "wikiDataId": "Q2429432",
    "name": "Sirajganj District",
    "country": "Bangladesh",
    "latitude": 24.33,
    "longitude": 89.62,
    "population": 3357706
  },
  {
    "id": "3912145",
    "wikiDataId": "Q58675",
    "name": "Chengde",
    "country": "People's Republic of China",
    "latitude": 40.973888888,
    "longitude": 117.932222222,
    "population": 3354444
  },
  {
    "id": "3371524",
    "wikiDataId": "Q100182",
    "name": "Durg district",
    "country": "India",
    "latitude": 21.183333333,
    "longitude": 81.283333333,
    "population": 3343872
  },
  {
    "id": "3725265",
    "wikiDataId": "Q999156",
    "name": "Dali Bai Autonomous Prefecture",
    "country": "People's Republic of China",
    "latitude": 25.6096,
    "longitude": 100.2664,
    "population": 3337559
  },
  {
    "id": "3525129",
    "wikiDataId": "Q116170766",
    "name": "Madrid city",
    "country": "Spain",
    "latitude": 40.40841191,
    "longitude": -3.68760088,
    "population": 3332035
  },
  {
    "id": "3184823",
    "wikiDataId": "Q100131",
    "name": "Siwan district",
    "country": "India",
    "latitude": 26.2,
    "longitude": 84.4,
    "population": 3330464
  },
  {
    "id": "3708994",
    "wikiDataId": "Q74957",
    "name": "Anshan",
    "country": "People's Republic of China",
    "latitude": 41.10662,
    "longitude": 122.98945,
    "population": 3325372
  },
  {
    "id": "82034",
    "wikiDataId": "Q217432",
    "name": "Port Harcourt",
    "country": "Nigeria",
    "latitude": 4.77742,
    "longitude": 7.0134,
    "population": 3325000
  },
  {
    "id": "3706880",
    "wikiDataId": "Q514796",
    "name": "Baoji",
    "country": "People's Republic of China",
    "latitude": 34.36094,
    "longitude": 107.17507,
    "population": 3321853
  },
  {
    "id": "3367999",
    "wikiDataId": "Q2503836",
    "name": "Sheikhupura District",
    "country": "Pakistan",
    "latitude": 31.72,
    "longitude": 73.98,
    "population": 3321029
  },
  {
    "id": "3658204",
    "wikiDataId": "Q1985120",
    "name": "Dinajpur District",
    "country": "Bangladesh",
    "latitude": 25.63,
    "longitude": 88.65,
    "population": 3315236
  },
  {
    "id": "3184792",
    "wikiDataId": "Q1507174",
    "name": "Nagaur district",
    "country": "India",
    "latitude": 27.2,
    "longitude": 73.733333333,
    "population": 3307743
  },
  {
    "id": "3586116",
    "wikiDataId": "Q897330",
    "name": "Brahmanbaria District",
    "country": "Bangladesh",
    "latitude": 23.9528,
    "longitude": 91.1167,
    "population": 3306563
  },
  {
    "id": "3709032",
    "wikiDataId": "Q571766",
    "name": "Qinzhou",
    "country": "People's Republic of China",
    "latitude": 21.95,
    "longitude": 108.616666666,
    "population": 3302238
  },
  {
    "id": "3290255",
    "wikiDataId": "Q162612",
    "name": "Thiruvananthapuram district",
    "country": "India",
    "latitude": 8.48,
    "longitude": 76.94,
    "population": 3301427
  },
  {
    "id": "172156",
    "wikiDataId": "Q108143",
    "name": "San Diego County",
    "country": "United States",
    "latitude": 33.02,
    "longitude": -116.77,
    "population": 3298634
  },
  {
    "id": "3711186",
    "wikiDataId": "Q486235",
    "name": "Tongren",
    "country": "People's Republic of China",
    "latitude": 27.74188,
    "longitude": 109.19312,
    "population": 3298468
  },
  {
    "id": "3714076",
    "wikiDataId": "Q360069",
    "name": "Bengbu",
    "country": "People's Republic of China",
    "latitude": 33.14786,
    "longitude": 117.43558,
    "population": 3296408
  },
  {
    "id": "3504604",
    "wikiDataId": "Q1356097",
    "name": "Ernakulam district",
    "country": "India",
    "latitude": 10,
    "longitude": 76.33,
    "population": 3282388
  },
  {
    "id": "3337648",
    "wikiDataId": "Q742938",
    "name": "Indore district",
    "country": "India",
    "latitude": 22.666666666,
    "longitude": 75.75,
    "population": 3276697
  },
  {
    "id": "174490",
    "wikiDataId": "Q1094207",
    "name": "City of Tshwane Metropolitan Municipality",
    "country": "South Africa",
    "latitude": -25.666666666,
    "longitude": 28.333333333,
    "population": 3275152
  },
  {
    "id": "3467207",
    "wikiDataId": "Q2344833",
    "name": "Kishoreganj District",
    "country": "Bangladesh",
    "latitude": 24.433333333,
    "longitude": 90.783333333,
    "population": 3267626
  },
  {
    "id": "3291041",
    "wikiDataId": "Q100082",
    "name": "Purnia district",
    "country": "India",
    "latitude": 25.7833,
    "longitude": 87.4667,
    "population": 3264619
  },
  {
    "id": "3499735",
    "wikiDataId": "Q633114",
    "name": "Barabanki district",
    "country": "India",
    "latitude": 26.92,
    "longitude": 81.2,
    "population": 3260699
  },
  {
    "id": "3706060",
    "wikiDataId": "Q427367",
    "name": "Guang'an",
    "country": "People's Republic of China",
    "latitude": 30.46729,
    "longitude": 106.63358,
    "population": 3254883
  },
  {
    "id": "3158300",
    "wikiDataId": "Q18288155",
    "name": "Metropolitan City of Milan",
    "country": "Italy",
    "latitude": 45.4642,
    "longitude": 9.19034,
    "population": 3247623
  },
  {
    "id": "2979999",
    "wikiDataId": "Q584644",
    "name": "Ballia district",
    "country": "India",
    "latitude": 25.83333,
    "longitude": 84.16667,
    "population": 3239774
  },
  {
    "id": "3720255",
    "wikiDataId": "Q945428",
    "name": "Shunde District",
    "country": "People's Republic of China",
    "latitude": 22.83056,
    "longitude": 113.21556,
    "population": 3229090
  },
  {
    "id": "3284004",
    "wikiDataId": "Q649078",
    "name": "Casablanca Prefecture",
    "country": "Morocco",
    "latitude": 33.586881,
    "longitude": -7.611122,
    "population": 3218036
  },
  {
    "id": "153701",
    "wikiDataId": "Q7903",
    "name": "Casablanca",
    "country": "Morocco",
    "latitude": 33.599166666,
    "longitude": -7.62,
    "population": 3215935
  },
  {
    "id": "3710809",
    "wikiDataId": "Q515573",
    "name": "Hanzhong",
    "country": "People's Republic of China",
    "latitude": 33.07938,
    "longitude": 107.02598,
    "population": 3211462
  },
  {
    "id": "3707391",
    "wikiDataId": "Q68579",
    "name": "Putian",
    "country": "People's Republic of China",
    "latitude": 25.439444,
    "longitude": 119.010278,
    "population": 3210714
  },
  {
    "id": "3706491",
    "wikiDataId": "Q57958",
    "name": "Zhenjiang",
    "country": "People's Republic of China",
    "latitude": 32.21086,
    "longitude": 119.45508,
    "population": 3210418
  },
  {
    "id": "147476",
    "wikiDataId": "Q1473962",
    "name": "Pratapgarh district",
    "country": "India",
    "latitude": 25.8944,
    "longitude": 81.9388,
    "population": 3209141
  },
  {
    "id": "3707828",
    "wikiDataId": "Q71227",
    "name": "Shiyan",
    "country": "People's Republic of China",
    "latitude": 32.63507,
    "longitude": 110.7755,
    "population": 3209004
  },
  {
    "id": "57159",
    "wikiDataId": "Q121157",
    "name": "Mashhad",
    "country": "Iran",
    "latitude": 36.297494444,
    "longitude": 59.605923055,
    "population": 3208000
  },
  {
    "id": "91902",
    "wikiDataId": "Q173985",
    "name": "Faisalabad",
    "country": "Pakistan",
    "latitude": 31.418,
    "longitude": 73.079,
    "population": 3203846
  },
  {
    "id": "3689343",
    "wikiDataId": "Q13871",
    "name": "Pangasinan",
    "country": "Philippines",
    "latitude": 15.916666666,
    "longitude": 120.333333333,
    "population": 3188540
  },
  {
    "id": "172146",
    "wikiDataId": "Q5925",
    "name": "Orange County",
    "country": "United States",
    "latitude": 33.67,
    "longitude": -117.78,
    "population": 3186989
  },
  {
    "id": "3719027",
    "wikiDataId": "Q130684",
    "name": "Lualaba District",
    "country": "Democratic Republic of the Congo",
    "latitude": -10.71667,
    "longitude": 25.46667,
    "population": 3183300
  },
  {
    "id": "3710136",
    "wikiDataId": "Q72945",
    "name": "Changzhi",
    "country": "People's Republic of China",
    "latitude": 36.19529,
    "longitude": 113.09695,
    "population": 3180884
  },
  {
    "id": "3690805",
    "wikiDataId": "Q2344570",
    "name": "Rangpur District",
    "country": "Bangladesh",
    "latitude": 25.733333333,
    "longitude": 89.25,
    "population": 3169614
  },
  {
    "id": "14891",
    "wikiDataId": "Q426868",
    "name": "Leshan",
    "country": "People's Republic of China",
    "latitude": 29.5854,
    "longitude": 103.75755,
    "population": 3160168
  },
  {
    "id": "7032",
    "wikiDataId": "Q170688",
    "name": "Santa Cruz de la Sierra",
    "country": "Bolivia",
    "latitude": -17.789166666,
    "longitude": -63.1975,
    "population": 3151676
  },
  {
    "id": "3709502",
    "wikiDataId": "Q68919",
    "name": "Ningde",
    "country": "People's Republic of China",
    "latitude": 26.661666666,
    "longitude": 119.522777777,
    "population": 3146789
  },
  {
    "id": "3709732",
    "wikiDataId": "Q426756",
    "name": "Neijiang",
    "country": "People's Republic of China",
    "latitude": 29.58716,
    "longitude": 105.0635,
    "population": 3140678
  },
  {
    "id": "3721900",
    "wikiDataId": "Q393454",
    "name": "Haidian District",
    "country": "People's Republic of China",
    "latitude": 39.95812,
    "longitude": 116.29214,
    "population": 3133469
  },
  {
    "id": "3453268",
    "wikiDataId": "Q1486",
    "name": "Buenos Aires",
    "country": "Argentina",
    "latitude": -34.599722222,
    "longitude": -58.381944444,
    "population": 3121707
  },
  {
    "id": "147869",
    "wikiDataId": "Q2429655",
    "name": "Thrissur district",
    "country": "India",
    "latitude": 10.52022,
    "longitude": 76.2204,
    "population": 3121200
  },
  {
    "id": "3451592",
    "wikiDataId": "Q26791636",
    "name": "Banās Kāntha",
    "country": "India",
    "latitude": 24.25,
    "longitude": 72.5,
    "population": 3120506
  },
  {
    "id": "3184749",
    "wikiDataId": "Q1937875",
    "name": "Unnao district",
    "country": "India",
    "latitude": 26.55,
    "longitude": 80.48,
    "population": 3108367
  },
  {
    "id": "3710771",
    "wikiDataId": "Q58560",
    "name": "Qinhuangdao",
    "country": "People's Republic of China",
    "latitude": 39.93978,
    "longitude": 119.58812,
    "population": 3107400
  },
  {
    "id": "3180059",
    "wikiDataId": "Q18241891",
    "name": "Metropolitan City of Naples",
    "country": "Italy",
    "latitude": 40.8333,
    "longitude": 14.25,
    "population": 3107006
  },
  {
    "id": "3710783",
    "wikiDataId": "Q72877",
    "name": "Datong",
    "country": "People's Republic of China",
    "latitude": 40.093611111,
    "longitude": 113.291388888,
    "population": 3105591
  },
  {
    "id": "3214253",
    "wikiDataId": "Q731746",
    "name": "Deoria district",
    "country": "India",
    "latitude": 26.51,
    "longitude": 83.78,
    "population": 3100946
  },
  {
    "id": "3300463",
    "wikiDataId": "Q1142979",
    "name": "Kozhikode district",
    "country": "India",
    "latitude": 11.25,
    "longitude": 75.77,
    "population": 3086293
  },
  {
    "id": "147612",
    "wikiDataId": "Q2341660",
    "name": "Mumbai City district",
    "country": "India",
    "latitude": 18.96,
    "longitude": 72.82,
    "population": 3085411
  },
  {
    "id": "3877857",
    "wikiDataId": "Q1475",
    "name": "Quezon City",
    "country": "Philippines",
    "latitude": 14.65,
    "longitude": 121.0475,
    "population": 3084270
  },
  {
    "id": "3245052",
    "wikiDataId": "Q936703",
    "name": "Jhang District",
    "country": "Pakistan",
    "latitude": 30.583333333,
    "longitude": 71.65,
    "population": 3077720
  },
  {
    "id": "3507447",
    "wikiDataId": "Q15200",
    "name": "Tirunelveli district",
    "country": "India",
    "latitude": 8.65,
    "longitude": 77.3833,
    "population": 3077233
  },
  {
    "id": "3532999",
    "wikiDataId": "Q1862981",
    "name": "Jashore District",
    "country": "Bangladesh",
    "latitude": 23.17,
    "longitude": 89.2,
    "population": 3076144
  },
  {
    "id": "147594",
    "wikiDataId": "Q66485",
    "name": "Jaipur",
    "country": "India",
    "latitude": 26.915,
    "longitude": 75.82,
    "population": 3073350
  },
  {
    "id": "147810",
    "wikiDataId": "Q77568",
    "name": "Katihar district",
    "country": "India",
    "latitude": 25.55,
    "longitude": 87.57,
    "population": 3071029
  },
  {
    "id": "3356349",
    "wikiDataId": "Q1321577",
    "name": "Udaipur district",
    "country": "India",
    "latitude": 24.561944444,
    "longitude": 73.706944444,
    "population": 3068420
  },
  {
    "id": "3462288",
    "wikiDataId": "Q66568",
    "name": "Kanpur",
    "country": "India",
    "latitude": 26.4725,
    "longitude": 80.331111111,
    "population": 3067700
  },
  {
    "id": "3453112",
    "wikiDataId": "Q20934",
    "name": "Incheon",
    "country": "South Korea",
    "latitude": 37.463888888,
    "longitude": 126.648611111,
    "population": 3049315
  },
  {
    "id": "3265847",
    "wikiDataId": "Q15184",
    "name": "Madurai district",
    "country": "India",
    "latitude": 9.833333333,
    "longitude": 77.833333333,
    "population": 3038252
  },
  {
    "id": "3316915",
    "wikiDataId": "Q49155",
    "name": "Bhagalpur district",
    "country": "India",
    "latitude": 25,
    "longitude": 86.916666666,
    "population": 3037766
  },
  {
    "id": "3713538",
    "wikiDataId": "Q360178",
    "name": "Huainan",
    "country": "People's Republic of China",
    "latitude": 32.483056,
    "longitude": 117.016389,
    "population": 3033528
  },
  {
    "id": "3444862",
    "wikiDataId": "Q15386",
    "name": "Medak district",
    "country": "India",
    "latitude": 17.75,
    "longitude": 78.25,
    "population": 3033288
  },
  {
    "id": "3574368",
    "wikiDataId": "Q1074530",
    "name": "Kadiogo Province",
    "country": "Burkina Faso",
    "latitude": 12.333333333,
    "longitude": -1.5,
    "population": 3032668
  },
  {
    "id": "3705378",
    "wikiDataId": "Q485918",
    "name": "Liupanshui",
    "country": "People's Republic of China",
    "latitude": 26.594444,
    "longitude": 104.833333,
    "population": 3031602
  },
  {
    "id": "3206568",
    "wikiDataId": "Q3345331",
    "name": "Gazipur Sadar Upazila",
    "country": "Bangladesh",
    "latitude": 24.02,
    "longitude": 90.4,
    "population": 3023516
  },
  {
    "id": "3722015",
    "wikiDataId": "Q988844",
    "name": "Qianxinan Buyei and Miao Autonomous Prefecture",
    "country": "People's Republic of China",
    "latitude": 25.38808,
    "longitude": 105.3874,
    "population": 3015112
  },
  {
    "id": "3858514",
    "wikiDataId": "Q11462",
    "name": "Surabaya",
    "country": "Indonesia",
    "latitude": -7.246283611,
    "longitude": 112.737767222,
    "population": 3009286
  },
  {
    "id": "147886",
    "wikiDataId": "Q2019766",
    "name": "Uttar Dinajpur district",
    "country": "India",
    "latitude": 25.62,
    "longitude": 88.12,
    "population": 3007134
  },
  {
    "id": "3100048",
    "wikiDataId": "Q1812557",
    "name": "Shahjahanpur district",
    "country": "India",
    "latitude": 28,
    "longitude": 79.833333333,
    "population": 3006538
  },
  {
    "id": "3039820",
    "wikiDataId": "Q1135612",
    "name": "Satara district",
    "country": "India",
    "latitude": 17.7,
    "longitude": 74,
    "population": 3003741
  },
  {
    "id": "3413394",
    "wikiDataId": "Q591781",
    "name": "Mysuru district",
    "country": "India",
    "latitude": 12.21,
    "longitude": 76.49,
    "population": 3001127
  },